Id,Solo_danos,Herido,Muerto,Direccion,Latitud,Longitud,Dia,Mes,A_o,Choque,Atropello,Volcamiento,caida de ocupante,Otro,Rural,Urbana,Masculino,Femenino,<18,18-30,31-60,>60,Tipo_vehiculo,Publico,Particular,Oficial,Diplomatico
1,,1,,"CALLE 39 CRA 27,Calarcá,Quindio",4.5313862,-75.6421157,1,1,2021,X,,,,,,X,2,,,31-29,,,MOTO-MOTO,,2,,
2,,1,,"AVENIDA COLON CALLE 20,Calarcá,Quindio",4.5177686,-75.6534961,1,1,2021,X,,,,,,X,2,,,26,56,,BICICLETA-MOTO,,2,,
3,1,,,"BARRIO LA HUERTA M Q # 1,Calarcá,Quindio",4.514383,-75.643946,1,1,2021,X,,,,,,X,1,,,29,,,AUTOMOVIL,,1,,
4,1,,,"CRA 27 CALLE 39 ESQUINA,Calarcá,Quindio",4.530834,-75.642318,1,1,2021,X,,,,,,X,1,,,,53,,CAMIÓN,1,,,
5,,1,,"CRA 25 CALLE 44 ESQUINA,Calarcá,Quindio",4.533603,-75.63986,2,1,2021,X,,,,,,X,2,,,26,44,,AUTOMOVIL-CAMIONETA,,2,,
6,1,,,"CRA 12 FRENTE # 15+08,Calarcá,Quindio",4.528772,-75.631856,4,1,2021,X,,,,,,X,1,,,,46,,VOLQUETA-AUTOMÓVIL,,2,,
7,,1,,"VIA LA URIBE–CALARCA,Calarcá,Quindio",4.532229,-75.644075,4,1,2021,,,X,,,X,,,1,,26,,,MOTO,,1,,
8,,1,,"CRA 31 CALLE 40,Calarcá,Quindio",4.5310935,-75.6448737,4,1,2021,,,X,,,,X,1,,,,,62,BICICLETA,,1,,
9,1,,,"VIA LA URIBE–CALARCA KM 7+000,Calarcá,Quindio",4.497776,-75.678607,6,1,2021,X,,,,,X,,2,,,32,42,,CAMIONETA-CAMIÓN,1,1,,
10,1,,,"VIA LA URIBE–CALARCA KM 82+400,Calarcá,Quindio",4.521909,-75.64242,6,1,2021,X,,,,,X,,2,,,36,,67,AUTOMÓVIL-TRACTOCAMIÓN,1,1,,
11,,1,,"CALLE 37 CRA 26,Calarcá,Quindio",4.5298329,-75.6434429,6,1,2021,X,,,,,,X,2,,,,46-48,,CAMPERO-MOTO,,2,,
12,,1,,"VIA LA URIBE–CALARCA KM 78+430,Calarcá,Quindio",4.519587,-75.644111,7,1,2021,,X,,,,X,,1,,,,54,,BUS,1,,,
13,1,,,"CRA 10 # 8+68 BARCELONA,Calarcá,Quindio",4.4271169,-75.7184162,8,1,2021,X,,,,,,X,1,1,,32,50,,AUTOMÓVIL-MOTO,,2,,
14,1,,,"AVENIDA COLON ENTRE CALLES 18 Y 19,Calarcá,Quindio",4.52107,-75.649028,10,1,2021,X,,,,,,X,2,,,33-39,,,AUTOMÓVIL-BUS,1,1,,
15,,1,,"CALLE 39 FRENTE AL # 17+51,Calarcá,Quindio",4.528775,-75.635877,12,1,2021,,X,,,,,X,2,,17,,,69,MOTO,,1,,
16,1,,,"VIA LA URIBE–CALARCA KM 71+200,Calarcá,Quindio",4.498335,-75.677172,13,1,2021,X,,,,,X,,,,,,,,AUTOMOVIL-AUTOMOVIL,,1,,
17,1,,,"VIA VIA ARMENIA–IBAGUE KM 2+600,Calarcá,Quindio",4.525677,-75.6243,14,1,2021,X,,,,,X,,2,,,28,45,,MOTOCARRO-AUTOMÓVIL,,2,,
18,,1,,"CRA 25 CALLE 47,Calarcá,Quindio",4.5361006,-75.6395974,15,1,2021,X,,,,,,X,2,,,,48,84,AUTOMÓVIL-MOTO,,2,,
19,1,,,"VIA LA PAILA–CALARCA KM 84+200,Calarcá,Quindio",4.5266936,-75.6409574,15,1,2021,X,,,,,X,,2,,,33,57,,AUTOMÓVIL-TRACTOCAMIÓN,1,1,,
20,1,,,"KM 83+420 FRENTE AL RINCON DEL BOSQUE,Calarcá,Quindio",4.518212,-75.650899,16,1,2021,X,,,,,,X,2,,,36-36,,,AUTOMÓVIL-TRACTOCAMIÓN,1,1,,
21,1,,,"VIA ARMENIA–IBAGUE KM 0+800,Calarcá,Quindio",4.528321,-75.635542,16,1,2021,X,,,,,X,,2,,,,41,,CAMOINETA-BICICLETA,,,,
22,,1,,"VIA VIA ARMENIA–IBAGUE KM 1+600,Calarcá,Quindio",4.527427,-75.631278,18,1,2021,,,,,,X,,,,,27,33,,MOTO-MOTO,,2,,
23,1,,,"AVENIDA COLON CON CRA 27,Calarcá,Quindio",4.5244818,-75.6447301,19,1,2021,,X,,,,,X,1,1,,24,,61,AUTOMOVIL-AUTOMOVIL,,2,,
24,,1,,"VIA LA URIBE–CALARCA KM 79+630,Calarcá,Quindio",4.520564,-75.644111,20,1,2021,,,,,,X,,2,,,,32,67,MOTO-MOTO,,,,
25,,1,,"CRA 13 CALLE 12 BARRIO URIBE,Calarcá,Quindio",4.512878,-75.654611,22,1,2021,X,,,,,,X,2,,16,,57,,CAMPERO-BICICLETA,,2,,
26,,1,,"VA VIA LA URIBE–CALARCA KM 68,Calarcá,Quindio",4.496284,-75.683924,24,1,2021,X,,,,,X,,2,,,,32-41,,CAMIONETA-MOTO,,2,,
27,,1,,"VIA VIA ARMENIA–IBAGUE KM 6+800,Calarcá,Quindio",4.530847,-75.633817,26,1,2021,,,X,,,X,,1,,,,56,,TRACTOCAMIÓN,,1,,
28,,1,,"VIA VIA ARMENIA–IBAGUE KM 6+800,Calarcá,Quindio",4.530847,-75.633817,26,1,2021,,X,,,,X,,,1,,,45,,BICICLETA,,1,,
29,,1,,"BARRIO LLANITOS GUARALA MZ 1 # 1,Calarcá,Quindio",4.510612,-75.646354,26,1,2021,X,,,,,,X,2,,,,33-44,,BUSETA-MOTOCICLETA,1,1,,
30,1,,,"SERVICENTRO CALARCA CALLE 41 # 16+00,Calarcá,Quindio",4.5320467,-75.6413447,26,1,2021,X,,,,,,X,1,,,,50,,TRACTOCAMIÓN,1,,,
31,,1,,"CRA 26 CON CALLE 35,Calarcá,Quindio",4.528075,-75.642615,26,1,2021,X,,,,,,X,1,1,,23,42,,AUTOMÓVIL-MOTO,,2,,
32,1,,,"VIA LA URIBE–CALARCA KM 81+200,Calarcá,Quindio",4.52143,-75.64363,28,1,2021,X,,,,,X,,2,,,,38-51,,AUTOMÓVIL-TRACTOCAMIÓN,1,1,,
33,,1,,"VIA VIA ARMENIA–IBAGUE KM 1+600,Calarcá,Quindio",4.527427,-75.631278,31,1,2021,X,,,,,X,,1,1,,23-24,,,MOTO-MOTO,,2,,
34,,1,,"VIA LA URIBE–CALARCA KM 75+000,Calarcá,Quindio",4.510031,-75.652685,31,1,2021,X,,,,,X,,2,,,,36,65,AUTOMÓVIL-MOTO,,2,,
35,,1,,"FRENTE A LA FINCA BOHEMIA,Calarcá,Quindio",4.5175809,-75.656652,2,2,2021,X,,,,,X,,2,,,25-25,,,MOTOCICLETA,,1,,
36,1,,,"CRA 25 CALLE 45,Calarcá,Quindio",4.5341153,-75.6393064,2,2,2021,X,,,,,,X,1,1,,,37-44,,AUTOMÓVIL-MOTO,,2,,
37,1,,,"CALLE 42 # 20+59,Calarcá,Quindio",4.5329594,-75.6419666,4,2,2021,X,,,,,,X,1,1,,,30-40,,AUTOMOVIL-CAMIONETA,,1,,X
38,1,,,"VIA VIA ARMENIA–IBAGUE KM 4+600,Calarcá,Quindio",4.528836,-75.629791,4,2,2021,X,,,,,X,,2,,,25,36,,BUS-CAMPERO,1,1,,
39,1,,,"VIA LA URIBE–CALARCA KM 79+074,Calarcá,Quindio",4.520185,-75.644063,5,2,2021,X,,,,,X,,2,,,,45-56,,TRACTOCAMIÓN - TRACTOCAMIÓN,2,,,
40,,1,,"AVENIDA COLON CALLE 17,Calarcá,Quindio",4.5177686,-75.6534961,6,2,2021,X,,,,,,X,1,1,,,42-37,,MOTO-MOTO,,2,,
41,1,,,"VIA LA URIBE–CALARCA KM 76,Calarcá,Quindio",4.518007,-75.651315,7,2,2021,,,X,,,X,,1,,,,45,,TRACTOCAMIÓN,1,,,
42,,1,,"CALLE 39 ENTRE CRA 23 Y 22,Calarcá,Quindio",4.4805728,-75.6440842,10,2,2021,,,X,,,,X,,1,,,37,,MOTOCICLETA,,1,,
43,,1,,"VIA VIA ARMENIA–IBAGUE KM 0+650,Calarcá,Quindio",4.527356,-75.636681,10,2,2021,X,,,,,,X,2,,,,35-34,,CAMIÓN-MOTO,1,1,,
44,1,,,"VIA LA URIBE–CALARCA KM 72+200,Calarcá,Quindio",4.501073,-75.668055,11,2,2021,X,,,,,X,,2,,,,39,76,CAMIÓN-CAMIÓN,,1,,
45,1,,,"VIA LA URIBE–CALARCA KM 72+450,Calarcá,Quindio",4.501381,-75.663979,11,2,2021,X,,,,,X,,2,,,,43-30,,CAMPERO-VOLQUETA,,2,,
46,1,,,"CRA 24 CALLE 33 # 17,Calarcá,Quindio",4.5262899,-75.6418792,11,2,2021,,X,,,,,X,1,,,27,,,MOTOCICLETA,,1,,
47,1,,,"VIA LA URIBE–CALARCA KM 72+550,Calarcá,Quindio",4.502064,-75.662973,11,2,2021,X,,,,,X,,2,,,,56-32,, VOLQUETA-VOLQUETA,2,,,
48,,1,,"CRA 24 CON CALLE 41 ESQUINA,Calarcá,Quindio",4.531434,-75.6399104,12,2,2021,X,,,,,,X,1,1,,21,37,,MOTO-BICICLETA,,2,,
49,1,,,"VIA LA URIBE–CALARCA KM 73+550,Calarcá,Quindio",4.503817,-75.659082,13,2,2021,X,,,,,X,,2,,,,50,61,VOLQUETA-MICROBUS,1,1,,
50,1,,,"CALLE 40 ENTRE CRA 24 Y 25,Calarcá,Quindio",4.4805728,-75.6440842,13,2,2021,X,,,,,,X,2,,,23,40,,AUTOMÓVIL-MOTO,,2,,
51,,1,,"CALLE 45 CON CRA 26 GLORIETA NORTE,Calarcá,Quindio",4.5345367,-75.6402288,20,2,2021,X,,,,,,X,1,1,,19,32,,MOTO-MOTO,,2,,
52,,,1,"VIA LA URIBE–CALARCA KM 82+612,Calarcá,Quindio",4.522114,-75.642201,22,2,2021,X,,,,,X,,1,1,,,55-55,,MOTO,,1,,
53,,1,,"VIA CALARCA–CIRCASIA KM 3+300,Calarcá,Quindio",4.5276933,-75.632571,23,2,2021,,,X,,,X,,2,,,23,59,,CAMIÓN,1,,,
54,1,,,"CALLE 39 FRENTE AL 28+48,Calarcá,Quindio",4.5301984,-75.6403968,24,2,2021,X,,,,,,X,2,,,,33-35,,AUTOMÓVIL-MOTO,,2,,
55,,1,,"VIA ARMENIA–IBAGUE KM 2+800,Calarcá,Quindio",4.525415,-75.622642,28,2,2021,X,,,,,,X,1,1,,,41-43,,MOTO-MOTO,,2,,
56,,1,,"VIA LA URIBE–CALARCA KM 82+900,Calarcá,Quindio",4.522395,-75.642071,1,3,2021,X,,,,,X,,2,,,26,39,,BUSETA-MOTOCICLETA,1,1,,
57,,1,,"VIA CALARCA–CIRCASIA KM 0+250,Calarcá,Quindio",4.5276933,-75.632571,2,3,2021,X,,,,,X,,,2,,,31-34,,AUTOMÓVIL-MOTO,,2,,
58,,1,,"VIA ARMENIA–IBAGUE KM 3+780,Calarcá,Quindio",4.526095,-75.624446,3,3,2021,X,,,,,X,,2,,,,45,69,AUTOMÓVIL-MOTO,,2,,
59,,1,,"VIA ARMENIA–IBAGUE KM 3+300,Calarcá,Quindio",4.525464,-75.618221,4,3,2021,X,,,,,X,,1,1,,24,53,,CAMIONETA-MOTO,1,1,,
60,,1,,"CRA 25 ENTRE CALLES 39+38,Calarcá,Quindio",4.5304156,-75.6409928,5,3,2021,X,,,,,,X,2,,,,51-43,,CAMPERO-MOTO,,2,,
61,,1,,"CRA 24 CALLE 36 ESQUINA,Calarcá,Quindio",4.5282202,-75.6410915,7,3,2021,X,,,,,,X,2,,,,38-42,,MOTO-MOTO,,2,,
62,,1,,"CRA 12 CON CALLE 10,Calarcá,Quindio",4.427794,-75.719542,8,3,2021,,,X,,,,X,,1,,,34,,MOTO,,1,,
63,,1,,"VIA LA URIBE–CALARCA KM 74+700,Calarcá,Quindio",4.506762,-75.654958,12,3,2021,X,,,,,X,,2,,,,39-50,,MOTO-CAMIONETA,,2,,
64,,1,,"VIA LA URIBE–CALARCA,Calarcá,Quindio",4.521844,-75.642577,13,3,2021,X,,,,,X,,2,,,26,53,,MOTO-MOTO,,2,,
65,,1,,"CRA 12 CON CALLE 11 BARCELONA,Calarcá,Quindio",4.4293236,-75.718392,14,3,2021,X,,,,,,X,2,,,25,55,,AUTOMÓVIL-MOTO,,2,,
66,1,,,"VIA LA URIBE–CALARCA 85+930,Calarcá,Quindio",4.525305,-75.637086,14,3,2021,X,,,,,X,,2,,,,54-43,,CAMPERO-CAMIONETA,,2,,
67,,1,,"VIA LA URIBE–CALARCA KM 83+040,Calarcá,Quindio",4.522823,-75.642013,18,3,2021,X,,,,,X,,,,,27,35,,AUTOMÓVIL-MOTO,,2,,
68,,,1,"VIA LA URIBE–CALARCA KM 75+850,Calarcá,Quindio",4.516124,-75.651931,21,3,2021,,X,,,,X,,,,,,52,,BUSETA,1,,,
69,,1,,"CALLE 34 CRA 18 # 18+05 BARRIO NARANJAL,Calarcá,Quindio",4.525709,-75.638371,23,3,2021,X,,,,,,X,2,,,28-28,,,MOTO-MOTO,,2,,
70,,,1,"FRENTE ALA FINCA PARAISO VEREDA LA ALBANIA,Calarcá,Quindio",4.479673,-75.699107,28,3,2021,,,X,,,X,,,,,29,40,,MOTO,,1,,
71,,1,,"VIA LA URIBE–CALARCA KM 76+200,Calarcá,Quindio",4.518781,-75.649461,29,3,2021,X,,,,,X,,1,,,23,,,MOTO,,1,,
72,1,,,"AVENIDA COLON CRA 34 FRENTE # 15+151,Calarcá,Quindio",4.5222917,-75.6478148,30,3,2021,X,,,,,,X,1,1,,28,47,,AUTOMOVIL-VOLQUETA,1,1,,
73,1,,,"VIA LA URIBE–CALARCA KM 82+900,Calarcá,Quindio",4.522395,-75.642071,31,3,2021,X,,,,,X,,,,,,30-32,,CAMPERO-CAMIONETA,1,1,,
74,,,1,"VIA LA URIBE–CALARCA KM 83+830,Calarcá,Quindio",4.523524,-75.641745,1,4,2021,X,,,,,X,,2,,,25-23,,,MOTO-CAMIONETA,,2,,
75,,1,,"VIA LA URIBE–CALARCA KM 84+800,Calarcá,Quindio",4.523446,-75.640153,2,4,2021,X,,,,,X,,2,,,24,,64,MOTO-MOTO,,2,,
76,,1,,"CALLE 40 CRA 20 AVENIDA EL CACIQUE,Calarcá,Quindio",4.5307824,-75.6401809,3,4,2021,X,,,,,,X,2,,,19,32,,MOTOCICLO-AUTOMÓVIL,,2,,
77,,1,,"VDA POTOSI FRENTE INGRESO A FINCA POTOSI,Calarcá,Quindio",4.467806,-75.682736,3,4,2021,X,,,,,X,,2,,,22,38,,CAMIÓN-MOTO,1,1,,
78,1,,,"KM 79+650 LA ESPANOLA,Calarcá,Quindio",4.479673,-75.699107,4,4,2021,X,,,,,X,,2,,,,32-41,,CAMIÓN-CAMIONETA,1,1,,
79,,1,,"VEREDA POTOSI FINCA VILLA MARCELA,Calarcá,Quindio",4.460567,-75.689269,5,4,2021,X,,,,,X,,2,,,26,50,,CAMIONETA-CAMIONETA,,2,,
80,,,1,"QUEBRADA NEGRA FRENTE A FINCA LAS MALVINAS,Calarcá,Quindio",4.44361,-75.669404,5,4,2021,,,X,,,X,,1,,,,,68,CAMPERO,1,,,
81,1,,,"VARIANTE NORTE CRA 26 NO 45+60,Calarcá,Quindio",4.534889,-75.639961,9,4,2021,X,,,,,,X,2,,,,58,,AUTOMÓVIL-MOTO,,2,,
82,1,,,"DENTRO DEL PARQUEADERO AQUI ES PAPA,Calarcá,Quindio",4.53047,-75.63945,10,4,2021,X,,,,,,X,2,,,,59-42,,TRACTOCAMIÓN-TRACTOCAMIÓN,2,,,
83,,1,,"VIA ARMENIA–IBAGUE KM 0+600 ,Calarcá,Quindio",4.527356,-75.636681,15,4,2021,X,,,,,X,,1,1,,26,42,,MOTO-MOTO,,2,,
84,1,,,"CRA 26 CALLE 45,Calarcá,Quindio",4.5341153,-75.6393064,23,4,2021,X,,,,,,X,2,,,26-23,,,AUTOMOVIL-AUTOMOVIL,,2,,
85,,1,,"VIA BARCELONA- RIO VERDE,Calarcá,Quindio",4.404806,-75.729949,23,4,2021,X,,,,,X,,2,,,,48,61,MOTO-MOTO,,2,,
86,,1,,"VIA CALARCA–CIRCASIA KM 2+420,Calarcá,Quindio",4.5076838,-75.5812264,24,4,2021,,,X,,,X,,1,,,,54,,CAMIONETA,,1,,
87,,1,,"VIA VIA ARMENIA–IBAGUE KM 1+900,Calarcá,Quindio",4.528978,-75.628477,24,4,2021,,,X,,,X,,1,,,,,,BICICLETA,,1,,
88,,1,,"CALLE 41 CRA 23 ESQUINA,Calarcá,Quindio",4.5312116,-75.6392796,26,4,2021,X,,,,,,X,1,1,,22,40,,MOTO-BUS,1,X,,
89,,1,,"VEREDA QUEBRADA NEGRA FINCA LA PLAYA,Calarcá,Quindio",4.4277397,-75.7440859,29,4,2021,X,,,,,X,,2,,,,51,72,CAMIONETA-CAMIONETA,,2,,
90,,1,,"CRA 21 CALLE 44,Calarcá,Quindio",4.5280984,-75.6389846,29,4,2021,X,,,,,,X,2,,,,41-52,,AUTOMÓVIL-MOTO,,2,,
91,1,,,"AVENIDA COLON FRENTE 21+315,Calarcá,Quindio",4.5222917,-75.6478148,3,5,2021,X,,,,,,X,2,,,,40-31,,AUTOMÓVIL-MOTO,1,1,,
92,,1,,"CRA 26 NO 39+1+6 LOCAL 1,Calarcá,Quindio",4.5307781,-75.6417183,5,5,2021,,X,,,,,X,2,,,20,,80,MOTOCICLO,,1,,
93,1,,,"PRADERA ALTA CALLE 50B NO 26+41,Calarcá,Quindio",4.4805728,-75.6440842,5,5,2021,X,,,,,,X,2,,,,47-48,,AUTOMOVIL-BUS,1,1,,
94,,1,,"VIA BARCELONA FRENTE FINCA QUINTAS DEL CAFE,Calarcá,Quindio",4.4748703,-75.7022109,7,5,2021,X,,,,,X,,2,,,27-29,,,AUTOMÓVIL-MOTO,,2,,
95,1,,,"CRA 17 ENTRE CALLE 42 Y 43,Calarcá,Quindio",4.5266936,-75.6409574,7,5,2021,X,,,,,,X,1,1,,,38-30,,AUTOMÓVIL-MOTO,,2,,
96,1,,,"VIA VIA ARMENIA–IBAGUE KM 1+460,Calarcá,Quindio",4.527472,-75.632495,15,5,2021,,,X,,,X,,1,,,,35,,CAMIONETA,,1,,
97,,1,,"CRA 26 CON VARIANTE SUR,Calarcá,Quindio",4.518923,-75.645,15,5,2021,X,,,,,,X,2,,16,,,67,CAMIONETA-BICICLETA,,2,,
98,,1,,"VIA LA URIBE–CALARCA KM 84+800,Calarcá,Quindio",4.523446,-75.640153,16,5,2021,X,,,,,X,,2,,,24,,77,,,,,
99,1,,,"CALLE 39 CON CRA 27,Calarcá,Quindio",4.5308829,-75.6423,16,5,2021,X,,,,,,X,2,,,26,43,,CAMIONETA-MOTO,,2,,
100,,1,,"CRA 18 CALLE 37,Calarcá,Quindio",4.5298329,-75.6434429,17,5,2021,,,X,,,,X,1,,,24,,,MOTOCICLETA,,1,,
101,,1,,"VIA LA URIBE–CALARCA KM 76+400,Calarcá,Quindio",4.519037,-75.648942,18,5,2021,X,,,,,X,,2,,,,35,,MOTOCICLETA,,1,,
102,1,,,"POTOSI-QUEBRADANEGRA,Calarcá,Quindio",4.450711,-75.68995,22,5,2021,X,,,,,X,,1,1,,,42-44,,CAMPERO-CAMIONETA,1,1,,
103,,1,,"VIA ARMENIA–IBAGUE KM 1+500,Calarcá,Quindio",4.527472,-75.632495,22,5,2021,X,,,,,X,,2,,,22,46,,VOLQUETA-MOTO,1,1,,
104,,1,,"ENTRADA AL BARRIO NARANJAL CALLE 19 CON 44,Calarcá,Quindio",4.52094,-75.648954,23,5,2021,X,,,,,,X,2,,,21,,61,MOTOCICLETA,,1,,
105,1,,,"URBANIZACION ALTO DEL RIO,Calarcá,Quindio",4.5311089,-75.6413119,24,5,2021,X,,,,,,X,2,,,,54,64,VOLQUETA-CAMPERO,1,1,,
106,1,,,"VIA ARMENI-IBAGUE KM 7+250,Calarcá,Quindio",4.5345071,-75.6411721,25,5,2021,,,,,X,X,,1,,,,55,,TRACTOCAMIÓN,1,,,
107,1,,,"CALLE 42 CON CRA 23,Calarcá,Quindio",4.5318428,-75.6390514,1,6,2021,X,,,,,,X,2,,,,46,72,AUTOMOVIL-CAMPERO,,2,,
108,,1,,"KM 81+900 VIA LA URIBE–CALARCA,Calarcá,Quindio",4.521643,-75.643113,2,6,2021,X,,,,,X,,2,,,25,,60,MOTO-MOTO,,2,,
109,,1,,"KM 81+900 VIA LA URIBE–CALARCA,Calarcá,Quindio",4.521643,-75.643113,2,6,2021,X,,,,,X,,2,,,25,,60,MICROBUS-MOTOCICLETA,1,1,,
110,,,1,"VIA ARMENIA–IBAGUE KM 0+820,Calarcá,Quindio",4.528321,-75.635542,5,6,2021,X,,,,,X,,2,,,,57,24,CAMIÓN-MOTOCICLETA,1,1,,
111,1,,,"AVENIDA COLON 22+196,Calarcá,Quindio",4.5177686,-75.6534961,5,6,2021,X,,,,,,X,2,,,26,,70,AUTOMOVIL-BUS,1,1,,
112,1,,,"CRA 25 CALLE 45 FRENTE 24+59,Calarcá,Quindio",4.53423,-75.639651,5,6,2021,X,,,,,,X,1,,,,,60,CAMIONETA-MOTO,,2,,
113,,1,,"CRA 27 ENTRE CALLE 32 Y 32A,Calarcá,Quindio",4.4805728,-75.6440842,6,6,2021,X,,,,,,X,1,1,,20-22,,,MOTO-BICICLETA,,2,,
114,,1,,"CALLE 39 FRENTE AL NO 18+15,Calarcá,Quindio",4.5301984,-75.6403968,7,6,2021,X,,,,,,X,2,,,22,46,,CAMIÓN-MOTOCICLETA,1,1,,
115,,1,,"AVENIDA COLON FRENTE AL 19+20,Calarcá,Quindio",4.5222917,-75.6478148,9,6,2021,X,,,,,,X,2,,,27-18,,,AUTOMÓVIL-MOTO,,2,,
116,1,,,"CRA 23 CON CALLE 44,Calarcá,Quindio",4.527994,-75.640474,12,6,2021,X,,,,,,X,2,,,24-22,,,CAMIONETA-MOTO,,2,,
117,1,,,"ORDENADOR NORTE CALLE 45 CRA 26,Calarcá,Quindio",4.5345367,-75.6402288,12,6,2021,X,,,,,,X,1,1,17,,33,,AUTOMÓVIL-MOTO,,2,,
118,1,,,"BARCELONA VERDA CALLE LARGA KM 2200,Calarcá,Quindio",4.427879,-75.740369,15,6,2021,X,,,,,X,,,2,,,42,60,AUTOMÓVIL-AUTOMÓVIL,,2,,
119,,1,,"CRA 25 CON CALLE 40,Calarcá,Quindio",4.5310051,-75.6407672,16,6,2021,X,,,,,,X,2,,,,31-30,,AUTOMÓVIL-MOTO,1,1,,
120,1,,,"KM 6+800 VIA VIA ARMENIA–IBAGUE,Calarcá,Quindio",4.530847,-75.633817,17,6,2021,X,,,,,X,,2,,,,40,,AUTOMÓVIL-TRACTOCAMIÓN,1,1,,
121, ,1,,"FRENTE FINCA ALEXANDRA, BARCELONA,Calarcá,Quindio",4.4273861,-75.7181014,26,6,2021,X,,,,,X,,2,,,,52-56,,AUTOMÓVIL-MOTO,,2,,
122,1,,,"CALLE 31A NO 26+04,Calarcá,Quindio",4.5259129,-75.643752,26,6,2021,X,,,,,,X,1,,,,51,,AUTOMÓVIL,,1,,
123,1,,,"CRA 19 VIA IBAGUE LA URIBE,Calarcá,Quindio",4.527255,-75.636744,27,6,2021,X,,,,,X,,2,,,,42-52,,CAMIONETA-MOTO,,2,,
124,1,,,"BARRIO VALDEPENAS FRENTE MZ K # 21,Calarcá,Quindio",4.514145,-75.657927,29,6,2021,X,,,,,,X,2,,,,56-,,AUTOMÓVIL-AUTOMÓVIL,1,1,,
125,1,,,"CRA 25 CALLE 32 ESQUINA,Calarcá,Quindio",4.5259265,-75.642665,29,6,2021,X,,,,,,X,2,,,29-21,,,CAMIONETA-MOTO,1,1,,
126,,1,,"CRA 26 CON CALLE 45,Calarcá,Quindio",4.534791,-75.640086,30,6,2021,,,X,,,,X,1,,,,43,,MOTOCICLETA,,1,,
127,,,,"KM 80+300 VIA URIBE -CALARCA,Calarcá,Quindio",4.5266936,-75.6409574,1,7,2021,X,,,,,X,,2,,,,36-55,,CAMPERO-TRACTOCAMIÓN,1,1,,
128,,1,,"VIA VIA ARMENIA–IBAGUE KM 0+200,Calarcá,Quindio",4.525811,-75.638657,1,7,2021,X,,,,,X,,1,1,,,55-40,,AUTOMÓVIL-MOTO,,2,,
129,1,,,"CRA 25 BARRIO PORVENIR,Calarcá,Quindio",4.518079,-75.644632,3,7,2021,X,,,,,,X,2,,,,,62,AUTOMÓVIL-MOTO,,2,,
130,,1,,"VILA VIA LA URIBE–CALARCA KM 84+450,Calarcá,Quindio",4.523619,-75.641069,4,7,2021,X,,,,,,X,2,,,,58-55,,TRACTOCAMIÓN-MOTO,1,1,,
131,1,,,"VIA LA URIBE–CALARCA KM 83+100,Calarcá,Quindio",4.522927,-75.641998,4,7,2021,X,,,,,,X,2,,,22,35,,AUTOMOVIL-CAMIÓN,,,,
132,,1,,"CALLE 39 ENTRE 27 Y 28,Calarcá,Quindio",4.4805728,-75.6440842,4,7,2021,X,,,,,,X,1,1,,,30,71,CAMIONETA-MOTO,,2,,
133,1,,,"CRA 26 ENTRE CALLES 36 Y 37,Calarcá,Quindio",4.4805728,-75.6440842,4,7,2021,,,,,X,,X,1,,,28,,,CAMIÓN ,1,,,
134,,1,,"VIA VIA CALARCA–CIRCASIA KM 1+250,Calarcá,Quindio",4.5276933,-75.632571,5,7,2021,X,,,,,X,,2,,,24,44,,AUTOMÓVIL-MOTO,,2,,
135,1,,,"CAFE SORRENTO KM 79+500,Calarcá,Quindio",4.520483,-75.644061,5,7,2021,X,,,,,X,,2,,,,44-36,,AUTOMÓVIL-CAMIONETA,,2,,
136,,1,,"CRA 6 # 10+40 CORREDOR BARCELONA-CALARCA,Calarcá,Quindio",4.42278,-75.721651,6,7,2021,X,,,,,X,,2,,,21-18,,,AUTOMÓVIL-MOTO,,2,,
137,1,,,"VIA VIA ARMENIA–IBAGUE KM 4+490,Calarcá,Quindio",4.529455,-75.62899,6,7,2021,X,,,,,X,,1,,,31,,,TRACTOCAMIÓN ,1,,,
138,,1,,"VIA VIA LA PAILA–CALARCA KM 72+800,Calarcá,Quindio",4.5266936,-75.6409574,7,7,2021,,,X,,,X,,1,,,,36,,MOTOCICLETA,,,1,
139,1,,,"CALLE 39 CON CRA 26 ESQUINA,Calarcá,Quindio",4.5306545,-75.6416746,7,7,2021,X,,,,,,X,2,,,27,56,,MICROBUS-AUTOMÓVIL,,2,,
140,,1,,"CARRERA 25 CALLE 40,Calarcá,Quindio",4.5220202,-75.6441195,8,7,2021,,,,X,,,X,1,,,28-23,,,MOTOCICLETA,,1,,
141,1,,,"CALLE 41 CRA 23 ESQUINA,Calarcá,Quindio",4.5312116,-75.6392796,9,7,2021,X,,,,,,X,2,,,28-18,,,AUTOMÓVIL-MOTO,,2,,
142,,1,,"KM 84+900 VIA LA PAILA–CALARCA,Calarcá,Quindio",4.5266936,-75.6409574,11,7,2021,X,,,,,X,,2,,,28-33,,,MOTOCICLETA-BICICLETA,,2,,
143,1,,,"VIA LA PAILA–CALARCA KM 84+700,Calarcá,Quindio",4.5266936,-75.6409574,12,7,2021,X,,,,,X,,1,,,30,,,CAMIONETA,,1,,
144,,1,,"CRA 25 CALLE 30 FRENTE BOMBA GUERRERO,Calarcá,Quindio",4.524587,-75.643172,12,7,2021,,X,,,,,X,2,,,,,68-82,MICROBUS,1,,,
145,,1,,"VIA CALARCA -LA URIBE KM 83+800,Calarcá,Quindio",4.523485,-75.641811,12,7,2021,X,,,,,X,,2,,,,43-57,,AUTOMÓVIL-MOTO,,2,,
146,1,,,"CALLE 37 CON CRA 27,Calarcá,Quindio",4.5296168,-75.6427488,13,7,2021,X,,,,,,X,2,,,27,44,,CAMIÓN-CAMPERO,1,1,,
147,,1,,"VIA LA URIBE–CALARCA KM 83+700,Calarcá,Quindio",4.523441,-75.641881,16,7,2021,,X,,,,X,,1,1,,29,56,,MOTOCICLETA ,,1,,
148,,1,,"CRA 18 CALLE 33 CALARCA,Calarcá,Quindio",4.5252109,-75.6371402,16,7,2021,X,,,,,,X,2,,,22-19,,,MOTO-MOTO,,2,,
149,1,,,"CALLE 12 ENTRE CRA 11 Y 12 BARCELONA,Calarcá,Quindio",4.427301,-75.716925,18,7,2021,X,,,,,,X,2,,,24,50,,BUSETA-AUTOMÓVIL,1,1,,
150,,,1,"FRENTE FINCA LA VIOLETA Y LOS GUAYABOS,Calarcá,Quindio",4.4789177,-75.644929,19,7,2021,X,,,,,X,,2,,,,42-53,,CAMIÓN-MOTOCICLETA,1,1,,
151,1,,,"CALLE 10 NO 11+46 BARCELONA,Calarcá,Quindio",4.427056,-75.718919,22,7,2021,X,,,,,,X,1,,,,47,,CAMIÓN,1,,,
152,,,1,"BOMBA EL PESCADOR ENTRANDO A CALARCA,Calarcá,Quindio",4.5266936,-75.6409574,28,7,2021,X,,,,,,X,1,,,22,,,MOTOCICLETA,,1,,
153,,1,,"CRA 25 ENTRE CALLES 33 Y 32,Calarcá,Quindio",4.5265528,-75.6424341,28,7,2021,X,,,,,X,,2,,,23,47,,AUTOMÓVIL-MOTO,,2,,
154,,1,,"VIA LA URIBE–CALARCA KM 82+130,Calarcá,Quindio",4.521761,-75.642796,30,7,2021,X,,,,,X,,2,,,,59,73,BUSETA-AUTOMÓVIL,1,1,,
155,,1,,"CRA 12 CALLE 14 BARCELONA,Calarcá,Quindio",4.4299542,-75.7169817,31,7,2021,X,,,,,,X,2,,,25,32,,MOTO-MOTO,,2,,
156,,1,,"CALLE 40 ENTRE CRA 30 Y 31,Calarcá,Quindio",4.532444,-75.644539,3,8,2021,X,,,,,,X,1,,,,56,,MOTOCICLETA,,1,,
157,,1,,"VEREDA LA FLORESTA,Calarcá,Quindio",4.5318611,-75.6529697,3,8,2021,X,,,,,X,,,1,,,30,,MOTOCICLETA,,1,,
158,,1,,"VIA VIA CALARCA–CIRCASIA KM 0+250,Calarcá,Quindio",4.5276933,-75.632571,3,8,2021,X,,,,,X,,2,,,,31-55,,MOTOCICLETA-CAMIONETA,,2,,
159,1,,,"VIA LA URIBE–CALARCA KM 75+100,Calarcá,Quindio",4.511287,-75.652354,4,8,2021,X,,,,,X,,2,,,,47-38,,CAMIÓN-CAMIÓN ,2,,,
160,,1,,"AVENIDA COLON FRENTE AL NO 22+78,Calarcá,Quindio",4.5222917,-75.6478148,5,8,2021,X,,,,,,X,2,,,,32-44,,CAMIÓN - BUS,2,,,
161,1,,,"VIA LA URIBE–CALARCA KM 81+500,Calarcá,Quindio",4.521473,-75.643576,5,8,2021,X,,,,,X,,1,1,,23,30,,AUTOMÓVIL-CAMIÓN ,1,1,,
162,,1,,"CALLE 40 CON AVENIDA EL CACIQUE,Calarcá,Quindio",4.5316122,-75.6384306,7,8,2021,X,,,,,,X,2,,,,38,67,AUTOMÓVIL-MOTO,,2,,
163,1,,,"VIA LA PAILA–CALARCA KM 85+600,Calarcá,Quindio",4.5266936,-75.6409574,9,8,2021,X,,,,,X,,2,,,19,53,,AUTOMÓVIL-BUS,2,,,
164,1,,,"FRENTE AL CAFE DE CARLOS CRA 23 CALLE 40,Calarcá,Quindio",4.5316574,-75.6403531,11,8,2021,X,,,,,,X,1,1,,,38,70,AUTOMÓVIL-BUSETA,1,1,,
165,,1,,"VIA LA URIBE–CALARCA KM 82+530,Calarcá,Quindio",4.522009,-75.642303,13,8,2021,X,,,,,X,,2,,,21,33,,CAMIÓN-CAMIONETA,1,1,,
166,,1,,"VIA CHAGUALA-CIRCASIA KM 1+800,Calarcá,Quindio",4.5276933,-75.632571,16,8,2021,X,,,,,X,,2,,,25,,,AUTOMÓVIL-MOTO,1,1,,
167,,1,,"CALLE 37 CON CRA 28,Calarcá,Quindio",4.5298641,-75.6434203,21,8,2021,X,,,,,,X,2,,,22,45,,BUSETA-BICICLETA,1,1,,
168,1,,,"KM 1+400 VIA CHAGUALA-CIRCASIA,Calarcá,Quindio",4.5276933,-75.632571,23,8,2021,,,,,X,X,,1,,,,31,,AUTOMÓVIL,,1,,
169,1,,,"VIA VIA LA PAILA–CALARCA KM 82+200,Calarcá,Quindio",4.5266936,-75.6409574,24,8,2021,X,,,,,X,,1,,,,47,,TRACTOCAMIÓN ,1,,,
170,1,,,"CRA 27 ENTRE CALLES 34 Y 33,Calarcá,Quindio",4.5276545,-75.6434254,27,8,2021,X,,,,,,X,2,,,29,32,,AUTOMÓVIL-MOTO,,2,,
171,1,,,"KM 82+200 VIA VIA LA PAILA–CALARCA,Calarcá,Quindio",4.5266936,-75.6409574,28,8,2021,X,,,,,X,,1,,,,30,,TRACTOCAMIÓN ,1,,,
172,,1,,"CALLE 39 CRA 17 ESQUINA,Calarcá,Quindio",4.5287708,-75.6358573,28,8,2021,X,,,,,,X,2,,,,55,,AUTOMÓVIL-MOTO,,2,,
173,,1,,"VIA VIA ARMENIA–IBAGUE KM 3+250,Calarcá,Quindio",4.525352,-75.618792,28,8,2021,X,,,,,X,,1,1,,,,,AUTOMÓVIL-MOTO,,2,,
174,,1,,"CALLE 30 N 25+64,Calarcá,Quindio",4.524687,-75.643359,30,8,2021,X,,,,,,X,1,,,,,65,CAMIONETA,,1,,
175,1,,,"VIA LA URIBE–CALARCA KM 82+300,Calarcá,Quindio",4.521844,-75.642577,31,8,2021,X,,,,,X,,1,,,,58,,TRACTOCAMIÓN ,1,,,
176,,1,,"VIA VIA ARMENIA–IBAGUE KM 6+950,Calarcá,Quindio",4.53189,-75.635019,1,9,2021,X,,,,,X,,2,,,,47-54,,TRACTOCAMIÓN-AUTOMÓVIL,2,,,
177,,1,,"VIA VIA ARMENIA–IBAGUE KM 3+300,Calarcá,Quindio",4.525464,-75.618221,2,9,2021,X,,,,,,X,2,,,,,62,MOTOCICLETA-BUS,,2,,
178,,1,,"VIA LA URIBE–CALARCA KM 85+500,Calarcá,Quindio",4.524157,-75.638028,2,9,2021,,X,,,,,X,,1,,,43,,MOTOCICLETA,,1,,
179,1,,,"VIA VIA ARMENIA–IBAGUE,Calarcá,Quindio",4.525671,-75.635741,3,9,2021,X,,,,,,X,2,,,25,51-,,TRACTOCAMIÓN-TRACTOCAMIÓN,2,,,
180,1,,,"CRA 26 CON CALLE 30,Calarcá,Quindio",4.524545,-75.643864,3,9,2021,X,,,,,,X,1,1,,,56-45,,CAMIONETA-MOTO,,2,,
181,,,1,"VIA LA URIBE–CALARCA KM 84+020,Calarcá,Quindio",4.523657,-75.641491,3,9,2021,X,,,,,,X,1,1,,,34,66,AUTOMÓVIL,,1,,
182,1,,,"AVENIDA COLON # 17+23 FRENTE AL ANCIANATO,Calarcá,Quindio",4.5204511,-75.6497791,6,9,2021,X,,,,,,X,2,,,,35-57,,CAMIONETA-AUTOMÓVIL,1,1,,
183,,1,,"VIA LA URIBE–CALARCA KM 72+300,Calarcá,Quindio",4.501063,-75.665265,7,9,2021,X,,,,,X,,1,1,,25,,64,MOTOCICLETA-AUTOMÓVIL,,2,,
184,,1,,"VIA VIA ARMENIA–IBAGUE,Calarcá,Quindio",4.525671,-75.635741,7,9,2021,,X,,,,X,,1,,,29,,,MOTOCICLETA,,1,,
185,1,,,"VIA VIA ARMENIA–IBAGUE KM 5+700,Calarcá,Quindio",4.525863,-75.634675,9,9,2021,X,,,,,X,,2,,,,41-37,,BUS-CAMIÓN,2,,,
186,,1,,"VIA LA URIBE–CALARCA KM 82+700,Calarcá,Quindio",4.522223,-75.642125,9,9,2021,X,,,,,X,,1,1,,22,32,,AUTOMÓVIL-MOTO,,2,,
187,,1,,"VIA LA URIBE–CALARCA KM 73+700,Calarcá,Quindio",4.503951,-75.658815,14,9,2021,X,,,,,X,,1,1,,21,51,,VOLQUETA-MOTOCICLETA,1,1,,
188,,1,,"VIA LA URIBE–CALARCA KM 71+100,Calarcá,Quindio",4.498282,-75.677354,16,9,2021,X,,,,,X,,1,1,,,39-40,,AUTOMÓVIL-AUTOMÓVIL,,2,,
189,1,,,"VIA LA PAILA–CALARCA KM 79+300,Calarcá,Quindio",4.5266936,-75.6409574,18,9,2021,X,,,,,X,,,,,25,,62,AUTOMOVIL-MOTOCICLETA,1,1,,
190,,1,,"CRA 24 NO 37+11,Calarcá,Quindio",4.5290069,-75.6408805,19,9,2021,X,,,,,,X,1,1,,26,39,,MOTO-MOTO,,2,,
191,,1,,"VIA LA PAILA–CALARCA KM 83+100,Calarcá,Quindio",4.5266936,-75.6409574,20,9,2021,X,,,,,X,,2,,,,44,72,MOTO-MOTO,,2,,
192,,1,,"VIA LA PAILA–CALARCA 84+380,Calarcá,Quindio",4.5266936,-75.6409574,21,9,2021,X,,,,,X,,2,,,20-28,,,MOTO-MOTO,,2,,
193,,1,,"VIA LA URIBE–CALARCA KM 81+870,Calarcá,Quindio",4.521641,-75.64316,21,9,2021,X,,,,,X,,1,1,,20,35,,CAMIÓN-AUTOMÓVIL,1,1,,
194,1,,,"VIA LA URIBE–CALARCA KM 83+500,Calarcá,Quindio",4.523289,-75.641955,22,9,2021,X,,,,,,X,1,,,25,,,AUTOMÓVIL,,1,,
195,1,,,"CRA 24 CALLE 41 Y 42,Calarcá,Quindio",4.5285541,-75.6409661,25,9,2021,X,,,,,,X,1,1,,30,53,,AUTOMÓVIL-CAMIÓN ,1,1,,
196,,1,,"AVENIDA COLON CRA 26,Calarcá,Quindio",4.5177686,-75.6534961,25,9,2021,X,,,,,,X,2,,,29,32,,AUTOMÓVIL-MOTO,,2,,
197,1,,,"CRA 11 CON CALLE 8 BARCELONA,Calarcá,Quindio",4.426427,-75.720316,26,9,2021,X,,,,,,X,2,,,26,56,,CAMPERO-BUS,1,1,,
198,,,1,"VIA LA URIBE–CALARCA KM 72+500,Calarcá,Quindio",4.50179,-75.663331,27,9,2021,X,,,,,X,,1,1,,,54,66,BUSETA-MOTO,1,1,,
199,,1,,"VIA LA URIBE–CALARCA KM 74+500,Calarcá,Quindio",4.505726,-75.656175,1,10,2021,X,,,,,X,,1,,,,,67,BICICLETA-AUTOMOVIL,,2,,
200,,1,,"VIA LA URIBE–CALARCA KM 67+600,Calarcá,Quindio",4.494534,-75.686522,2,10,2021,,X,,,,X,,1,,,25,,,MOTOCICLETA,,1,,
201,1,,,"CRA 24 ENTRE CALLES 38 Y 37,Calarcá,Quindio",4.4805728,-75.6440842,2,10,2021,X,,,,,,X,1,,,,53,,AUTOMÓVIL-CAMIONETA,,2,,
202,,1,,"CALLE 39 ENTRE CRA 30 Y 31,Calarcá,Quindio",4.4805728,-75.6440842,5,10,2021,,X,,,,,X,1,,,,,64,MOTOCICLETA-,,1,,
203,,,1,"AVENIDA COLON NO 22+100,Calarcá,Quindio",4.5177686,-75.6534961,8,10,2021,X,,,,,,X,1,1,18,20,,,MOTOCICLETA ,,1,,
204,1,,,"VIA VIA ARMENIA–IBAGUE KM 0+150,Calarcá,Quindio",4.526175,-75.639562,9,10,2021,X,,,,,X,,1,1,,29,,,CAMIONETA-AUTOMOVIL,,2,,
205,1,,,"CALLE 13 FRENTE AL NO 6A-03 BARCELONA,Calarcá,Quindio",4.429633,-75.717994,9,10,2021,X,,,,,X,,1,1,,19,,,AUTOMOVIL-BUSETA,1,1,,
206,,1,,"VIA LA URIBE–CALARCA KM 83+550,Calarcá,Quindio",4.523339,-75.641921,9,10,2021,X,,,,,X,,2,,,,35,,MOTOCICLETA-AUTOMOVIL,,2,,
207,1,,,"VIA VIA CALARCA–CIRCASIA KM 0+050,Calarcá,Quindio",4.5276933,-75.632571,9,10,2021,X,,,,,,X,2,,,,38-58,,AUTOMOVIL-AUTOMOVIL,,2,,
208,,1,,"VIA LA URIBE–CALARCA KM 72+500,Calarcá,Quindio",4.50179,-75.663331,11,10,2021,X,,,,,X,,2,,,21,56,,CAMIONETA-MOTOCICLETA,,2,,
209,,1,,"VEREDA CALLE LARGA FTEA LA FINCA LA FORTUNA,Calarcá,Quindio",4.426067,-75.741317,12,10,2021,X,,,,,X,,2,,,24,,65,CAMIONETA-MOTOCICLETA,,2,,
210,1,,,"VIA VIA LA PAILA–CALARCA KM 83+300,Calarcá,Quindio",4.5266936,-75.6409574,16,10,2021,X,,,,,X,,2,,,,44,,AUTOMOVIL-TRACTOCAMION ,1,1,,
211,,1,,"VIA LA URIBE–CALARCA KM 72+900,Calarcá,Quindio",4.503015,-75.66136,16,10,2021,X,,,,,X,,2,,,,57,73,MOTOCICLETA-MOTOCICLETA,,2,,
212,1,,,"VIA LA PAILA,Calarcá,Quindio",4.471042,-75.764637,18,10,2021,X,,,,,X,,2,,,,34-58,,CAMIONETA-AUTOMOVIL,,2,,
213,,,1,"VIA ARMENIA–IBAGUE KM 1+250,Calarcá,Quindio",4.529346,-75.631993,20,10,2021,X,,,,,X,,2,,17,,50,,AUTOMÓVIL-BICICLETA,,2,,
214,1,,," VIA ARMENIA–IBAGUE KM 7+100,Calarcá,Quindio",4.532453,-75.636766,20,10,2021,X,,,,,X,,1,,,,49,,CAMIONETA,1,,,
215,1,,,"CALLE 41 CRA 24,Calarcá,Quindio",4.5314429,-75.6399579,22,10,2021,X,,,,,,X,2,,,27,36,,MOTOCICLETA-CAMIONETA,,2,,
216,1,,,"VIA VIA CALARCA–CIRCASIA 0+500,Calarcá,Quindio",4.5076838,-75.5812264,25,10,2021,X,,,,,X,,1,1,,,42-38,,AUTOMÓVIL-CAMIONETA,,2,,
217,,1,,"VIA CALARCA-LA URIBE KM 81+400,Calarcá,Quindio",4.521415,-75.643622,26,10,2021,X,,,,,X,,1,1,,27-19,,,MOTOCICLETA-MOTOCICLETA,,2,,
218,,1,,"VIA VIA ARMENIA–IBAGUE KM 0+400,Calarcá,Quindio",4.52558,-75.637006,26,10,2021,X,,,,,X,,2,,,,55,71,CAMIONETA-MOTOCICLETA,,2,,
219,1,,,"KM 5+200 VIA VIA ARMENIA–IBAGUE,Calarcá,Quindio",4.526676,-75.63466,28,10,2021,X,,,,,X,,2,,,,52-48,,CAMPERO-BUS,1,1,,
220,1,,,"CRA 25 FRENTE AL NO 30+41,Calarcá,Quindio",4.5288108,-75.6416001,30,10,2021,X,,,,,,X,1,,,,,69,CAMIONETA,,1,,
221,1,,,"CRA 29 CON CALLE 39 ESQUINA,Calarcá,Quindio",4.5313416,-75.643575,30,10,2021,X,,,,,,X,2,,,26,59,,AUTOMÓVIL-BUS,1,1,,
222,,1,,"CALLE 45 CRA 25 VARIANTE SUR,Calarcá,Quindio",4.534244,-75.6396205,31,10,2021,X,,,,,,X,2,,,,40-49,,CAMIONETA-MOTOCICLETA,,2,,
223,1,,,"CRA 23 FRENTE AL NO 40+25,Calarcá,Quindio",4.5292893,-75.6399992,31,10,2021,X,,,,,,X,2,,,25-23,,,MOTOCICLETA-AUTOMÓVIL,,2,,
224,,1,,"CRA 25 CON CALLE 43,Calarcá,Quindio",4.5329539,-75.6401254,31,10,2021,X,,,,,,X,2,,,26,58,,BUS-MOTOCICLETA,1,1,,
225,1,,,"CRA 12 CON CALLE 10 BARCELONA,Calarcá,Quindio",4.427794,-75.719542,2,11,2021,X,,,,,,X,2,,,,43,66,CAMIÓN-CAMPERO,1,1,,
226,1,,,"VIA LA URIBE–CALARCA KM 77+350,Calarcá,Quindio",4.518852,-75.644932,3,11,2021,X,,,,,X,,2,,,20,49,,CAMIÓN-TRACTOCAMIÓN,2,,,
227,,1,,"VIA LA URIBE–CALARCA KM 80+050,Calarcá,Quindio",4.520885,-75.644018,4,11,2021,,X,,,,,X,2,,,,53-48,,TRACTOCAMIÓN,1,,,
228,1,,,"CRA 25 CALLE 31,Calarcá,Quindio",4.5253758,-75.6432515,10,11,2021,X,,,,,,X,2,,,27,53,,AUTOMÓVIL-AUTOMÓVIL,,2,,
229,1,,,"VIA LA URIBE–CALARCA KM 86,Calarcá,Quindio",4.526654,-75.636862,12,11,2021,X,,,,,X,,1,1,,,38-38,,CAMIONETA-CAMION ,1,1,,
230,1,,,"VIA LA PAILA–CALARCA KM 79+840,Calarcá,Quindio",4.5266936,-75.6409574,14,11,2021,X,,,,,X,,2,,,,51-46,,AUTOMÓVIL-AUTOMÓVIL,1,1,,
231,,1,,"VIA LA URIBE–CALARCA KM 69+000,Calarcá,Quindio",4.497219,-75.680181,14,11,2021,,X,,,,X,,1,1,,,51-48,,MOTOCICLETA,,1,,
232,1,,,"VIA LA URIBE–CALARCA KM 68,Calarcá,Quindio",4.496282,-75.684118,17,11,2021,X,,,,,X,,2,,,,56,67,CAMIONETA-AUTOMÓVIL,,2,,
233,,1,,"VIA VIA CALARCA–CIRCASIA KM 0+150,Calarcá,Quindio",4.5276933,-75.632571,19,11,2021,X,,,,,X,,2,,,22,32,,AUTOMÓVIL-MOTOCICLETA,,2,,
234,,1,,"VIA VIA LA PAILA–CALARCA KM 80+486,Calarcá,Quindio",4.5266936,-75.6409574,24,11,2021,X,,,,,X,,2,,,,49-31,,BUS-MOTOCICLETA,1,1,,
235,1,,,"CALLE 39 CON CRA 23,Calarcá,Quindio",4.5299229,-75.6397631,26,11,2021,X,,,,,,X,2,,,29-21,,,AUTOMÓVIL-MOTOCICLETA,,2,,
236,1,,,"VIA LA URIBE–CALARCA KM 71+100,Calarcá,Quindio",4.498282,-75.677354,27,11,2021,X,,,,,X,,2,,,21,55,,CAMIONETA-BUSETA,1,1,,
237,1,,,"VIA ARMENIA–IBAGUE KM 2+200,Calarcá,Quindio",4.527775,-75.625865,28,11,2021,X,,,,,X,,2,,,20,38,,CAMIONETA-MOTOCICLETA,,2,,
238,,1,,"VIA QUEBRADANEGRA-POTOSI BAJO,Calarcá,Quindio",4.468015,-75.688564,2,12,2021,X,,,,,X,,2,,,,41-40,,VOLQUETA-AUTOMÓVIL,,2,,
239,,1,,"CRA 26 CON CALLE 35,Calarcá,Quindio",4.528075,-75.642615,2,12,2021,,X,,,,,X,1,,,,41,,MOTOCICLETA,,1,,
240,,1,,"VIA LA URIBE–CALARCA KM 83+100,Calarcá,Quindio",4.522927,-75.641998,2,12,2021,X,,,,,,X,1,1,,26,47,,MOTOCICLETA-MOTOCICLETA,,2,,
241,,1,,"VIA ARMENIA–IBAGUE KM 3+400,Calarcá,Quindio",4.525653,-75.617399,4,12,2021,X,,,,,,X,2,,,21,54,,AUTOMÓVIL-MOTOCICLETA,,2,,
242,,1,,"CRA 27 CON CALLE 37 Y 36,Calarcá,Quindio",4.529207,-75.642837,5,12,2021,,X,,,,,X,2,,,,52,83,MICROBUS,1,,,
243,,1,,"CRA 23 CALLE 40,Calarcá,Quindio",4.5300826,-75.6383027,7,12,2021,X,,,,,,X,2,,,21,53,,MOTOCICLETA-CAMIONETA,1,1,,
244,1,,,"VIA LA URIBE–CALARCA KM 82+100,Calarcá,Quindio",4.521743,-75.64283,7,12,2021,X,,,,,,X,2,,,29,52,,TRACTOCAMIÓN-AUTOMÓVIL,1,1,,
245,1,,,"VIA QUEBRADANEGRA-FINCA VILLA LAURA,Calarcá,Quindio",4.440829,-75.672034,9,12,2021,X,,,,,X,,2,,,30,32,,AUTOMÓVIL-CAMIÓN ,1,1,,
246,1,,,"VIA LA URIBE–CALARCA KM 77+020,Calarcá,Quindio",4.51864,-75.64563,10,12,2021,X,,,,,X,,2,,,,33-39,,MOTOCICLETA-MOTOCICLETA,,2,,
247,1,,,"CRA 27 CON CALLE 38,Calarcá,Quindio",4.5302829,-75.6425707,13,12,2021,X,,,,,,X,2,,,,42-34,,CAMIONETA-MOTOCICLETA,,1,,
248,1,,,"VIA VIA LA PAILA–CALARCA KM 82+200,Calarcá,Quindio",4.5266936,-75.6409574,13,12,2021,X,,,,,X,,2,,,26-22,,,MICROBUS-MOTOCICLETA,1,1,,
249,,1,,"VIA LA URIBE–CALARCA KM 85+700,Calarcá,Quindio",4.524697,-75.637347,13,12,2021,,,X,,,X,,1,,,,33,,MOTOCICLETA,,1,,
250,,1,,"VIA VIA ARMENIA–IBAGUE KM 2+300,Calarcá,Quindio",4.526852,-75.626053,13,12,2021,X,,,,,,X,2,,,21,34,,AUTOMÓVIL-AUTOMÓVIL,,2,,
251,,,1,"VIA VIA CALARCA–CIRCASIA KM 3+800,Calarcá,Quindio",4.5276933,-75.632571,17,12,2021,,,X,,,X,,1,,,,38,,MOTOCICLETA,,1,,
252,1,,,"CRA 23 CON CALLE 44,Calarcá,Quindio",4.527994,-75.640474,18,12,2021,X,,,,,,X,2,,,,40-38,,AUTOMÓVIL-AUTOMÓVIL,,2,,
253,1,,,",Calarcá,Quindio",4.5305516,-75.6406048,19,12,2021,X,,,,,X,,2,,,30-21,,,AUTOMÓVIL-MOTOCICLETA,,2,,
254,,1,,"CRA 25 ENTRE CALLES 31 Y 32,Calarcá,Quindio",4.5252771,-75.642924,19,12,2021,,X,,,,,X,1,,,29,,,MOTOCICLETA,,1,,
255,1,,,"VIA LA URIBE–CALARCA KM 82+150,Calarcá,Quindio",4.521761,-75.642796,22,12,2021,X,,,,,X,,2,,,,45,82,AUTOMÓVIL-VOLQUETA,1,1,,
256,1,,,"VIA LA URIBE–CALARCA KM 82+030,Calarcá,Quindio",4.521697,-75.642952,23,12,2021,X,,,,,X,,2,,,20,54,,AUTOMÓVIL-MOTOCICLETA,,2,,
257,1,,,"CALLE 38 CON CRA 22,Calarcá,Quindio",4.5290661,-75.639359,24,12,2021,X,,,,,,X,2,,,,39-49,,AUTOMÓVIL-BUS,1,1,,
258,1,,1,"PARQUEADERO RECUCA, VEREDA CALLE LARGA,Calarcá,Quindio",4.528772,-75.631856,25,12,2021,X,,,,,X,,2,1,,24,55-58,,CAMIONETA-AUTOMOVIL-AUTOMÓVIL,,3,,
259,1,1,,"CRA 26 CON CALLE 35 ESQUINA,Calarcá,Quindio",4.528075,-75.642615,29,12,2021,X,,,,,,X,2,,,,44,62,MICROBUS-MOTOCICLETA,1,1,,
260,,1,,"VIA LA URIBE–CALARCA KM 84+860,Calarcá,Quindio",4.523438,-75.639961,3,1,2022,1,,,,,,1,2,,,,1,,MOTOCICLETA-CAMIÓN,1,1,,
261,,1,,"VIA LA URIBE–CALARCA KM 78+800,Calarcá,Quindio",4.519806,-75.644062,10,1,2022,,1,,,,1,,2,,,,1,1,BUS,1,,,
262,,1,,"VIA LA URIBE–CALARCA KM 68+100,Calarcá,Quindio",4.496253,-75.683333,12,1,2022,1,,,,,1,,2,,,,,1,AUTOMÓVIL-AUTOMÓVIL,1,X,,
263,,1,,"AVENIDA COLON FRENTE AL # 21+175,Calarcá,Quindio",4.5222917,-75.6478148,12,1,2022,1,,,,,,1,1,1,,,1,,MOTOCICLETA-AUTOMÓVIL,,2,,
264,,1,,"CALLE 39 # 27+36,Calarcá,Quindio",4.5287985,-75.6362298,13,1,2022,,1,,,,,1,2,,,,1,1,MOTOCICLETA,,1,,
265,,1,,"VIA VIA CALARCA–CIRCASIA KM 1+500,Calarcá,Quindio",4.5276933,-75.632571,16,1,2022,1,,,,,1,,2,,,,2,,CAMPERO-MOTOCICLETA,,2,,
266,1,,,"VIA LA URIBE–CALARCA KM 80+472,Calarcá,Quindio",4.521221,-75.643856,19,1,2022,1,,,,,1,,2,,,1,1,,BUS-CAMIÓN ,2,,,
267,1,,,"CALLE 35 ENTRE CRAS 21 Y 25,Calarcá,Quindio",4.4805728,-75.6440842,21,1,2022,1,,,,,,1,1,,,,,1,CAMPERO,1,,,
268,,1,,"VIA VIA ARMENIA–IBAGUE KM 1+300,Calarcá,Quindio",4.528772,-75.631856,21,1,2022,,,1,,,1,,1,,,1,,,MOTOCICLETA,,1,,
269,,1,,"CRA 27 ENTRE CALLE 32 A 31,Calarcá,Quindio",4.5238189,-75.6403848,23,1,2022,1,,,,,,1,2,,,1,,,AUTOMÓVIL-MOTOCICLETA,,2,,
270,,1,,"VIA LA URIBE–CALARCA KM 76+100,Calarcá,Quindio",4.518502,-75.650182,25,1,2022,,1,,,,1,,2,,,,1,,AUTOMÓVIL,,1,,
271,1,,,"CRA 27 ENTRE CALLES 39 Y 38,Calarcá,Quindio",4.5308829,-75.6423,26,1,2022,1,,,,,,1,,2,,,2,,AUTOMÓVIL-AUTOMÓVIL,,2,,
272,,1,,"VIA LA URIBE–CALARCA KM 85+100,Calarcá,Quindio",4.523605,-75.63933,28,1,2022,1,,,,,1,,1,1,,1,1,,AUTOMÓVIL-MOTOCICLETA,,2,,
273,1,,,"VIA LA URIBE–CALARCA KM 81+800,Calarcá,Quindio",4.521543,-75.643404,29,1,2022,1,,,,,1,,2,,,,2,,VOLQUETA-TRACTOCAMIÓN,2,,,
274,,1,,"VIA LA URIBE–CALARCA KM 73+100,Calarcá,Quindio",4.503256,-75.660698,30,1,2022,1,,,,,1,,2,,,,1,1,AUTOMÓVIL-MOTOCICLETA,,2,,
275,,1,,"VIA CALLE LARGA VIA RECUCA FINCA QUINTA,Calarcá,Quindio",4.528772,-75.631856,31,1,2022,1,,,,,1,,2,,,,2,,MOTOCICLETA-BICICLETA,,2,,
276,1,,,"VIA LA URIBE–CALARCA KM 67+500,Calarcá,Quindio",4.494011,-75.687267,1,2,2022,,,1,,,1,,1,,,,1,,MOTOCICLETA ,,1,,
277,,1,,"CRA 25 ENTRE CALLES 46 Y 47,Calarcá,Quindio",4.535048,-75.6393154,5,2,2022,,1,,,,,1,1,,,1,,,,,,,
278,,1,,"CALLE 44 VARIANTE NORTE FRENTE A IGLESIA,Calarcá,Quindio",4.5324702,-75.636805,7,2,2022,,1,,,,,1,1,1,,1,1,,MOTOCICLETA,,1,,
279,,1,,"CRA 25 CALLE 30,Calarcá,Quindio",4.5241522,-75.6419001,8,2,2022,1,,,,,,1,2,,,1,1,,AUTOMÓVIL-MOTOCICLETA,1,1,,
280,1,,,"VIA LA URIBE–CALARCA KM 75+000,Calarcá,Quindio",4.510241,-75.652712,12,2,2022,1,,,,,,1,2,,,,2,,CAMIONETA-MOTOCICLETA,,2,,
281,,1,,"BARRIO LLANITOS DE GUARALA FRENTE MZ 4 # 15,Calarcá,Quindio",4.509718,-75.645696,14,2,2022,1,,,,,,1,1,1,,,2,,MOTOCICLETA-MOTOCICLETA,,2,,
282,,1,,"CRA 26 CALLE 45,Calarcá,Quindio",4.5341153,-75.6393064,15,2,2022,1,,,,,,1,1,1,,1,,1,CAMIONETA-MOTOCICLETA,,2,,
283,,1,,"VIA LA URIBE–CALARCA KM 83+200,Calarcá,Quindio",4.523046,-75.641983,17,2,2022,1,,,,,1,,2,,,,2,1,BUSETA-AUTOMÓVIL,1,1,,
284,,1,,"VIA LA URIBE–CALARCA KM 84+400,Calarcá,Quindio",4.52364,-75.641163,20,2,2022,1,,,,,,1,2,,,,2,,AUTOMÓVIL-MOTOCICLETA,,2,,
285,,1,,"VIA LA URIBE–CALARCA KM 77+350,Calarcá,Quindio",4.518852,-75.644932,23,2,2022,,1,,,,1,,2,,1,1,,,MOTOCICLETA,,1,,
286,1,,,"CRA 26 ENTRE CALLES 36 Y 37,Calarcá,Quindio",4.4805728,-75.6440842,25,2,2022,1,,,,,,1,1,1,,1,,1,AUTOMÓVIL-CAMPERO,,2,,
287,1,,,"BARRIO VERACRUZ FRENTE MZ 15 # 12,Calarcá,Quindio",4.5198225,-75.6529549,6,3,2022,1,,,,,,1,1,1,,,2,,CAMIONETA-AUTOMÓVIL,,2,,
288,1,,,"VIA CIRCASIA KM 1+800,Calarcá,Quindio",4.6226052,-75.626791,8,3,2022,1,,,,,1,,2,,,1,,1,AUTOMÓVIL-MOTOCICLETA,1,1,,
289,,1,,"VIA VIA ARMENIA–IBAGUE KM 0+500,Calarcá,Quindio",4.526504,-75.636869,10,3,2022,1,,,,,,1,1,1,,1,1,,AUTOMÓVIL-MOTOCICLETA,,2,,
290,,1,,"VIA VIA ARMENIA–IBAGUE KM 2+200,Calarcá,Quindio",4.527775,-75.625865,11,3,2022,1,,,,,,1,2,,,1,1,,CAMIONETA-AUTOMÓVIL,,2,,
291,,1,,"VIA LA BELLA-POTOSI FRENTE A LA ESCUELA POTOSI,Calarcá,Quindio",4.499797,-75.67284,13,3,2022,,,,1,,1,,1,,,,1,,BUS,1,,,
292,1,,,"CRA 23 FRENTE 43+60 CACIQUE,Calarcá,Quindio",4.5297935,-75.6376795,15,3,2022,1,,,,,,1,1,1,,,2,,CAMIONETA-AUTOMÓVIL,1,1,,
293,,1,,"VIA VIA CALARCA–CIRCASIA KM 0+100 FRENTE AL ESTADIO,Calarcá,Quindio",4.4701384,-75.5423922,16,3,2022,1,,,,,1,,1,1,,1,1,,MOTOCICLETA-MOTOCICLETA,,2,,
294,1,,,"VIA LA URIBE–CALARCA KM 83+500,Calarcá,Quindio",4.523289,-75.641955,17,3,2022,1,,,,,,1,2,,,,,1,CAMIÓN-CAMIONETA,1,1,,
295,,1,,"VIA VIA CALARCA–CIRCASIA KM 0+500,Calarcá,Quindio",4.5276933,-75.632571,18,3,2022,1,,,,,1,,2,,,1,1,,AUTOMÓVIL-MOTOCICLETA,,2,,
296,,1,,"CRA 25 # 15+02 BARRIO LA HUERTA,Calarcá,Quindio",4.514844,-75.644425,19,3,2022,1,,,,,,1,2,,,1,1,,MOTOCICLETA-MOTOCICLETA,,2,,
297,,1,,"VIA LA URIBE–CALARCA KM 76+680,Calarcá,Quindio",4.519115,-75.648049,23,3,2022,1,,,,,,1,2,,,,1,1,CAMIONETA-MOTOCICLETA,1,1,,
298,,1,,"CALLE 37 ENTRE CRA 25 Y 24 FRENTE 24+06,Calarcá,Quindio",4.5286724,-75.640226,23,3,2022,1,,,,,,1,2,,,,2,,CAMION-AUTOMOVIL-MOTO,,3,,
299,1,,,"VIA LA URIBE–CALARCA KM 82+850,Calarcá,Quindio",4.522328,-75.642093,24,3,2022,1,,,,,,1,1,,,1,,,AUTOMÓVIL,1,,,
300,,1,,"VIA LA URIBE–CALARCA KM 85+645,Calarcá,Quindio",4.524412,-75.63773,24,3,2022,1,,,,,,1,1,1,,1,1,,MOTOCICLETA-MOTOCICLETA,,2,,
301,,1,,"CRA 27 # 32+35,Calarcá,Quindio",4.5313862,-75.6421157,25,3,2022,1,,,,,,1,2,,,1,1,,AUTOMÓVIL,,1,,
302,1,,,"CALLE 37 # 18+03,Calarcá,Quindio",4.5298329,-75.6434429,27,3,2022,1,,,,,,1,1,,,1,,,CAMIÓN ,1,,,
303,1,,,"CRA 29 CALLE 39 ESQUINA,Calarcá,Quindio",4.5313416,-75.643575,29,3,2022,1,,,,,,1,1,,,,1,,AUTOMÓVIL ,,1,,
304,,1,,"VIA LA URIBE–CALARCA KM 8+033,Calarcá,Quindio",4.520832,-75.644064,29,3,2022,1,,,,,,1,2,,,,2,,MOTOCICLETA-MOTOCICLETA,,2,,
305,1,,,"VIA LA URIBE–CALARCA KM 85+900,Calarcá,Quindio",4.525305,-75.637086,2,4,2022,1,,,,,1,,2,,,1,1,,AUTOMÓVIL-CAMIONETA,1,1,,
306,1,,,"VIA LA URIBE–CALARCA KM 86 VERSALLES,Calarcá,Quindio",4.526654,-75.636862,3,4,2022,1,,,,,,1,2,,,,1,1,VOLQUETA-Campero,1,1,,
307,1,,,"VIA LA URIBE–CALARCA KM 81+719,Calarcá,Quindio",4.521497,-75.643476,5,4,2022,1,,,,,,1,2,,,,2,,AUTOMÓVIL-TRACTOCAMIÓN,1,1,,
308,1,,,"VIA CHAGUALA-PEREIRA KM 0+380,Calarcá,Quindio",4.486492,-75.69955,5,4,2022,,,,,,1,,1,,,,1,,CAMIONETA,,1,,
309,,1,,"VIA LA URIBE–CALARCA KM 85+085,Calarcá,Quindio",4.523605,-75.63933,6,4,2022,1,,,,,,1,2,,,1,1,,MOTOCICLETA-MOTOCICLETA,,2,,
310,1,,,"EDIFICIO BRIO AQUI ES PAPA,Calarcá,Quindio",4.528772,-75.631856,7,4,2022,1,,,,,,1,2,,,,2,,TRACTOCAMIÓN-TRACTOCAMIÓN,2,,,
311,,1,,"VIA LA URIBE–CALARCA KM 85+740,Calarcá,Quindio",4.524984,-75.637193,7,4,2022,1,,,,,1,,1,1,,1,1,,MOTOCICLETA-MOTOCICLETA,,2,,
312,,1,,"VIA RIO VERDE BARRIO EL CONGAL 2,Calarcá,Quindio",4.5098877,-75.6528201,9,4,2022,1,,,,,1,,1,1,,,2,,AUTOMÓVIL-VOLQUETA,,2,,
313,,1,,"VIA LA URIBE–CALARCA KM 78+885,Calarcá,Quindio",4.51993,-75.644059,10,4,2022,1,,,,,1,,1,1,,,2,,AUTOMÓVIL-MOTOCICLETA,,2,,
314,,1, ,"BARRIO BARSOVIA MZ B # 1,Calarcá,Quindio",4.517202,-75.64483,11,4,2022,,1,,,,,1,2,,,1,1,,CAMIONETA-AUTOMÓVIL,,2,,
315,,1,,"BARRIO CALDAS CRA 26 CON CALLE 28,Calarcá,Quindio",4.523565,-75.644296,12,4,2022,1,,,,,,1,2,,,,1,1,AUTOMÓVIL-MOTOCICLETA,2,,,
316,,1,,"FRENTE A LA BOMBA BIOMAX BARELONA,Calarcá,Quindio",4.424975,-75.720964,12,4,2022,1,,,,,,1,2,,,,1,1,MOTOCICLETA-MOTOCICLETA,,2,,
317,,,1,"VIA LA URIBE–CALARCA KM 71+100,Calarcá,Quindio",4.498282,-75.677354,14,4,2022,1,,,,,1,,2,,,1,1,,AUTOMÓVIL-MOTOCICLETA,,2,,
318,,1,,"VIA VIA CALARCA–CIRCASIA KM 2+200,Calarcá,Quindio",4.5276933,-75.632571,15,4,2022,1,,,,,,1,2,,,1,1,,AUTOMÓVIL-MOTOCICLETA,1,1,,
319,1,,,"CRA 25 CALLE 45 ESQUINA,Calarcá,Quindio",4.534244,-75.6396205,15,4,2022,1,,,,,,1,,1,,1,,,AUTOMÓVIL,,1,,
320,,1,,"VIA VIA ARMENIA–IBAGUE KM 2+400,Calarcá,Quindio",4.526089,-75.626082,18,4,2022,1,,,,,,1,2,,,,2,,TRACTOCAMIÓN-MOTOCICLETA,1,1,,
321,1,,,"CRA 28 ENTRE CALLES 39 Y 40,Calarcá,Quindio",4.5311025,-75.6429383,18,4,2022,1,,,,,,1,2,,,1,1,,CAMIÓN-AUTOMÓVIL,1,1,,
322,,1,,"VIA LA URIBE–CALARCA KM 85+900,Calarcá,Quindio",4.525305,-75.637086,19,4,2022,,1,,,,,1,2,,,1,,1,AUTOMÓVIL,,1,,
323,,1,,"CALLE 45 CON CRA 25 ESQUINA,Calarcá,Quindio",4.534244,-75.6396205,19,4,2022,1,,,,,,1,1,1,,,2,,AUTOMÓVIL-MOTOCICLETA,,2,,
324,,1,,"VIA VIA ARMENIA–IBAGUE KM 4+600,Calarcá,Quindio",4.528836,-75.629791,19,4,2022,1,,,,,1,,2,,,1,,,CAMIONETA-MOTOCICLETA,2,,,
325,,1,,"CALLE 30 CON CRA 23,Calarcá,Quindio",4.5241598,-75.6419024,20,4,2022,,1,,,,,1,1,1,,,1,1,BUS,1,,,
326,,1,,"CALLE 47 CON CRA 26 ESQUINA,Calarcá,Quindio",4.536109,-75.6397001,20,4,2022,1,,,,,,1,1,1,,,2,,AUTOMÓVIL-CAMIONETA,,2,,
327,,1,,"VEREDA PUERTO RICO LA ROCHELA,Calarcá,Quindio",4.48731,-75.65431,20,4,2022,1,,,,,1,,1,1,,1,1,,MOTOCICLETA-MOTOCICLETA,,2,,
328,,1,,"CRA 12 CALLE 8 BARCELONA,Calarcá,Quindio",4.4256212,-75.7197734,21,4,2022,,1,,,,,1,1,1,1,1,,,MOTOCICLETA,,1,,
329,1,,,"VIA LA URIBE–CALARCA KM 74+400,Calarcá,Quindio",4.504769,-75.657576,23,4,2022,1,,,,,,1,2,,,2,,,AUTOMÓVIL-AUTOMÓVIL,,2,,
330,1,,,"VIA LA URIBE–CALARCA KM 76+100,Calarcá,Quindio",4.518502,-75.650182,23,4,2022,1,,,,,,1,2,,,2,,,AUTOMÓVIL-AUTOMÓVIL,,2,,
331,,1,,"CRA 27A CALLE 30 FRENTE A 30B-27,Calarcá,Quindio",4.524387,-75.644832,29,4,2022,,1,,,,,1,2,,,1,1,,MOTOCICLETA ,,1,,
332,1,,,"VIA LA URIBE–CALARCA KM 77+870,Calarcá,Quindio",4.519037,-75.64456,1,5,2022,1,,,,,,1,2,,,,2,,TRACTOCAMIÓN-TRACTOCAMIÓN,2,,,
333,,1,,"VIA L A URIBE-CALARCA KM 80+850,Calarcá,Quindio",4.5095461,-75.6565342,2,5,2022,1,,,,,1,,2,,,2,,,AUTOMÓVIL-TRACTOCAMIÓN,1,1,,
334,,,1,"VIA VIA ARMENIA–IBAGUE KM 6+160,Calarcá,Quindio",4.528341,-75.633504,3,5,2022,1,,,,,1,,2,,,,2,1,AUTOMÓVIL,,1,,
335,1,,,"VIA LA URIBE–CALARCA KM 84+863,Calarcá,Quindio",4.523438,-75.639961,5,5,2022,1,,,,,,1,2,,,1,1,,AUTOMÓVIL-MOTOCICLETA,,2,,
336,,1,,"VIA LA URIBE–CALARCA KM 77+450,Calarcá,Quindio",4.518925,-75.644783,6,5,2022,,,1,,,,1,1,1,2,,,,AUTOMÓVIL,,1,,
337,,1,,"CALLE 31 CON CRA 22 ESQUINA,Calarcá,Quindio",4.5245591,-75.6410057,7,5,2022,1,,,,,,1,1,1,,1,1,,CAMIONETA-MOTOCICLETA,,2,,
338,1,,,"VIA LA URIBE–CALARCA KM 69+100,Calarcá,Quindio",4.497294,-75.679687,8,5,2022,1,,,,,1,,2,,,1,1,,AUTOMÓVIL-CAMPERO,,2,,
339,,1,,"VIA VIA ARMENIA–IBAGUE KM 2+500,Calarcá,Quindio",4.525743,-75.625268,9,5,2022,1,,,,,1,,2,,,1,,1,AUTOMÓVIL-MOTOCICLETA,,2,,
340,1,,,"CRA 14 FRENTE AL # 2+38B BARCELONA,Calarcá,Quindio",4.4265984,-75.7140056,13,5,2022,1,,,,,,1,1,1,,,2,,CAMIONETA-AUTOMÓVIL,,2,,
341,1,,,"VIA VIA ARMENIA–IBAGUE KM 5+900,Calarcá,Quindio",4.527375,-75.634467,14,5,2022,,,1,,,1,,1,,,,1,,CAMIÓN ,1,,,
342,1,,,"AVENIDA COLON FRENTE AL # 17+109,Calarcá,Quindio",4.5222917,-75.6478148,14,5,2022,1,,,,,,1,2,,,2,,,AUTOMÓVIL-CAMIONETA,,1,1,
343,,1,,"VIA LA URIBE–CALARCA KM 83+720,Calarcá,Quindio",4.523441,-75.641881,18,5,2022,,,1,,,1,,1,,,1,,,AUTOMÓVIL,,1,,
344,,1,,"VIA LA URIBE–CALARCA KM 83+686,Calarcá,Quindio",4.523382,-75.641889,20,5,2022,,,1,,,,1,1,,,,1,,MOTOCICLETA,,1,,
345,,1,,"VIA LA URIBE–CALARCA KM 75+500,Calarcá,Quindio",4.513892,-75.652302,24,5,2022,1,,,,1,1,,1,,,,1,,MOTOCICLETA,,1,,
346,1,,,"VIA VIA ARMENIA–IBAGUE KM 5+400,Calarcá,Quindio",4.526242,-75.636071,30,5,2022,1,,,,,1,,2,,,,2,,CAMIONETA-CAMIONETA,,2,,
347,,1,,"VIA LA URIBE–CALARCA KM 82+660,Calarcá,Quindio",4.522176,-75.642148,30,5,2022,1,,,,,,1,2,,,,2,,AUTOMÓVIL-CAMIONETA,1,1,,
348,,1,,"CRA 18 CALLE 34 VARIANTE SUR,Calarcá,Quindio",4.52571,-75.638345,4,6,2022,1,,,,,,1,2,,,,2,,CAMIÓN-MOTOCICLETA,1,1,,
349,,1,,"VIA LA URIBE–CALARCA KM 84+400,Calarcá,Quindio",4.52364,-75.641163,4,6,2022,1,,,,,,1,2,,,,2,,CAMIÓN-MOTOCICLETA,1,1,,
350,,1,,"VIA LA URIBE–CALARCA KM 68+200,Calarcá,Quindio",4.49621,-75.682646,6,6,2022,1,,,,,1,,2,,,,1,1,CAMIÓN-BICICLETA,1,1,,
351,,1,,"VIA LA URIBE–CALARCA KM 80+630,Calarcá,Quindio",4.521362,-75.643741,8,6,2022,1,,,,,1,,2,,,,2,,AUTOMÓVIL-MOTOCICLETA,,2,,
352,,1,,"VIA VIA ARMENIA–IBAGUE KM 4+200,Calarcá,Quindio",4.528887,-75.625846,8,6,2022,1,,,,,,1,1,1,,1,,,CAMIÓN-MOTOCICLETA,1,1,,
353,,1,,"CRA 18 CALLE 35,Calarcá,Quindio",4.5265835,-75.6386187,10,6,2022,1,,,,,,1,1,1,,1,1,,AUTOMÓVIL-MOTOCICLETA,,2,,
354,1,,,"CRA 24 CALLE 33 ESQUINA,Calarcá,Quindio",4.5263069,-75.641817,11,6,2022,1,,,,,,1,2,,,1,1,,AUTOMÓVIL-CAMIONETA,1,1,,
355,,1,,"CALLE 39 ENTRE CRA 22 A 21,Calarcá,Quindio",4.529549,-75.638781,14,6,2022,1,,,,,,1,2,,,,2,,MOTOCICLETA-MOTOCICLETA,,1,1,
356,,1,,"VIA LA URIBE–CALARCA KM 83+050,Calarcá,Quindio",4.52285,-75.642011,15,6,2022,1,,,,,,1,2,,,,2,,BICICLETA-MOTOCICLETA,,2,,
357,,1,,"AVENIDA COLON ENTRE CALLES 17 Y 18,Calarcá,Quindio",4.4805728,-75.6440842,15,6,2022,1,,,,,,1,2,,,2,,,CAMIONETA-MOTOCICLETA,,2,,
358,,1,,"VIA LA URIBE–CALARCA KM 81+180,Calarcá,Quindio",4.52143,-75.64363,17,6,2022,1,,,,,1,,2,,,1,1,,MOTOCICLETA-AUTOMÓVIL,,2,,
359,,1,,"VIA VIA ARMENIA–IBAGUE KM 0+100,Calarcá,Quindio",4.526175,-75.639562,19,6,2022,1,,,,,1,,2,,,2,,,MOTOCICLETA-AUTOMÓVIL,,2,,
360,,1,,"CRA 17 CALLE 39,Calarcá,Quindio",4.5287985,-75.6362298,21,6,2022,1,,,,,,1,2,,,,2,,CAMIONETA-MOTOCICLETA,,2,,
361,1,,,"CRA 25 FRENTE AL 34+39,Calarcá,Quindio",4.5288108,-75.6416001,21,6,2022,1,,,,,,1,2,,,1,1,,CAMIONETA-AUTOMÓVIL,,1,,
362,,1,,"VIA LA URIBE–CALARCA KM 85+030,Calarcá,Quindio",4.523521,-75.639535,22,6,2022,1,,,,,1,,,2,,,2,,AUTOMÓVIL-MOTOCICLETA,,2,,
363,,1,,"VIA CHAGUALA-PEREIRA KM 3+050,Calarcá,Quindio",4.486492,-75.69955,22,6,2022,1,,,,,1,,2,,,,2,,AUTOMÓVIL-AUTOMÓVIL,,2,,
364,1,,,"VIA LA URIBE–CALARCA KM 71+035,Calarcá,Quindio",4.498177,-75.67746,22,6,2022,1,,,,,1,,1,,,1,,,CAMPERO,,,1,
365,,1,,"VIA LA URIBE–CALARCA KM 85+900,Calarcá,Quindio",4.525305,-75.637086,22,6,2022,,1,,,,1,,2,,,,1,1,AUTOMÓVIL,,1,,
366,1,,,"VIA LA URIBE-LA ESPANOLA KM 79+200,Calarcá,Quindio",4.520261,-75.644057,23,6,2022,1,,,,,,1,2,,,,2,,AUTOMÓVIL-AUTOMÓVIL,,2,,
367,1,,,"CRA 23 CALLE 39,Calarcá,Quindio",4.5299229,-75.6397631,26,6,2022,1,,,,,,1,2,,,,2,,BUS-AUTOMÓVIL,1,1,,
368,,1,,"VIA LA URIBE–CALARCA KM 72+200,Calarcá,Quindio",4.501047,-75.668028,27,6,2022,1,,,,,1,,1,,,1,,,AUTOMÓVIL,,1,,
369,,1,,"CRA 17 CALLE 37,Calarcá,Quindio",4.527935,-75.6359021,28,6,2022,1,,,,,,1,2,,,,1,1,MOTOCICLETA-MOTOCICLETA,,2,,
370,,1,,"CRA 25 NO 39+27,Calarcá,Quindio",4.5307885,-75.640964,28,6,2022,,1,,,,,1,1,1,,,1,1,MOTOCILCETA-PEATON ,,1,,
371,,1,,"VIA VIA ARMENIA–IBAGUE KM 1+110,Calarcá,Quindio",4.529645,-75.633093,1,7,2022,,1,,,,1,,2,,,1,,1,MOTOCICLETA,,1,,
372,1,,,"VEREDA PRIMER CRUCERO FINCA BUENOS AIRES,Calarcá,Quindio",4.445324,-75.65169,2,7,2022,1,,,,,1,,1,1,,2,,,CAMIONETA-CAMPERO,,2,,
373,,,1,"VIA LA BELLA-QUEBRADANEGRA,Calarcá,Quindio",4.488364,-75.672357,3,7,2022,1,,,,,1,,1,,,,1,,MOTOCILCLETA,,1,,
374,1,,,"CALLE 45 ENTRA CRAS 25 Y 26,Calarcá,Quindio",4.4805728,-75.6440842,7,7,2022,1,,,,,,1,2,,,1,1,,CAMIONETA-AUTOMÓVIL,,2,,
375,1,,,"BARRIO CALDAS CRA 25 CALLES 28, 29 Y 27,Calarcá,Quindio",4.522976,-75.643787,10,7,2022,,,,,1,,1,2,,,,1,,CAMIÓN ,1,,,
376,,,1,"VIA VIA ARMENIA–IBAGUE KM 5+700,Calarcá,Quindio",4.525863,-75.634675,10,7,2022,1,,,,,1,,1,,,,1,,MOTOCILCETA,,1,,
377,1,,,"VIA ARMENIA-CALARCA DEL KM 0+430 HASTA KM 0+480,Calarcá,Quindio",4.52558,-75.637006,12,7,2022,1,,,,,,1,2,,,,2,,CAMIÓN-CAMIONETA,1,1,,
378,1,,,"MZ I CASA 2 BARRIO LA HUERTA,Calarcá,Quindio",4.513674,-75.644267,12,7,2022,1,,,,,,1,2,,,,1,,CAMIONETA-CAMIONETA,1,1,,
379,,1,,"VIA VIA ARMENIA–IBAGUE KM 1+790,Calarcá,Quindio",4.528623,-75.629555,13,7,2022,,,1,,,1,,,1,,1,,,MOTOCICLETA,,1,,
380,,1,,"VIA LA URIBE–CALARCA KM 77+070,Calarcá,Quindio",4.51865,-75.645353,14,7,2022,1,,,,,1,,1,1,,1,1,,CAMIONETA-MOTOCICLETA,,2,,
381,,1,,"CALLE 39 CON CRA 23,Calarcá,Quindio",4.5299229,-75.6397631,14,7,2022,1,,,,,,1,1,1,,1,1,,CAMIONETA-MOTOCICLETA,1,1,,
382,1,,,"CALARCA-QUEBARADANEGRA FINCA LA PALOMA,Calarcá,Quindio",4.4867517,-75.6474786,14,7,2022,,,,,1,1,,2,,,,2,,CAMIONETA-CAMIÓN,1,1,,
383,,1,,"VIA LA URIBE–CALARCA KM 67+300,Calarcá,Quindio",4.493221,-75.68833,15,7,2022,1,,,,,1,,2,,,,1,1,MOTOCICLETA-MICROBUS,1,1,,
384,,1,,"VIA LA VIRGINIA,Calarcá,Quindio",4.490134,-75.6427003,17,7,2022,,,1,,,1,,1,,,,1,,AUTOMÓVIL,,1,,
385,,1,,"CALLE 44 CON CRA 23,Calarcá,Quindio",4.527994,-75.640474,17,7,2022,,,1,,,,1,1,,,,1,,AUTOMÓVIL,,1,,
386,,1,,"VIA VIA ARMENIA–IBAGUE KM 3+300,Calarcá,Quindio",4.525464,-75.618221,20,7,2022,1,,,,,,1,2,,1,,1,,AUTOMÓVIL-MOTOCICLETA,,2,,
387,,1,,"VIA LA URIBE–CALARCA KM 85+800,Calarcá,Quindio",4.525171,-75.637122,21,7,2022,,1,,,,,1,2,,,2,,,MOTOCICLETA,,1,,
388,,1,,"CRA 29 CON CALLE 40,Calarcá,Quindio",4.5319847,-75.6433517,21,7,2022,1,,,,,,1,1,1,,,1,1,BUS-MOTOCICLETA,1,1,,
389,,1,,"VIA VIA CALARCA–CIRCASIA KM 1+500,Calarcá,Quindio",4.5276933,-75.632571,21,7,2022,1,,,,,1,,2,,,2,,,MOTOCICLETA,,1,,
390,,1,,"VIA LA URIBE–CALARCA KM 83+080,Calarcá,Quindio",4.52289,-75.642006,22,7,2022,,,,,1,1,,2,,,1,1,,MOTOCICLETA-MOTOCICLETA,,2,,
391,,1,,"CRA 27 ENTRE 34 Y 33 FRENTE AL 316,Calarcá,Quindio",4.5315246,-75.6420647,24,7,2022,1,,,,,,1,2,,,1,1,,AUTOMÓVIL-MOTOCICLETA,,2,,
392,1,,,"VIA LA URIBE–CALARCA KM 77+800,Calarcá,Quindio",4.518995,-75.644619,25,7,2022,1,,,,,1,,2,,,,2,,CAMIONETA-TRACTOCAMIÓN,1,1,,
393,,1,,"VIA LA URIBE–CALARCA KKM 77+800,Calarcá,Quindio",4.518995,-75.644619,25,7,2022,,1,,,,1,,1,,,,1,,MOTOCICLETA,,1,,
394,1,,,"VIA LA URIBE–CALARCA KM 84+980,Calarcá,Quindio",4.523494,-75.639697,26,7,2022,1,,,,,,1,,,,1,,1,MOTOCICLETA-MOTOCICLETA,,2,,
395,,,1,"VIA LA URIBE–CALARCA KM 83+586,Calarcá,Quindio",4.523339,-75.641921,28,7,2022,,,,,1,,1,1,2,1,1,,1,MOTOCICLETA-BUS,1,1,,
396,,1,,"AVENIDA COLON FRENTE AL # 22+34,Calarcá,Quindio",4.5222917,-75.6478148,28,7,2022,1,,,,,,1,2,,,,1,1,CAMIONETA-MOTOCICLETA,,2,,
397,,1,,"VIA LA URIBE–CALARCA KM 76+000,Calarcá,Quindio",4.518046,-75.6512,30,7,2022,1,,,,,1,,1,,,,1,,MOTOCICLETA,,1,,
398,1,,,"AVENIDA COLON FRENTE AL NO 22+218,Calarcá,Quindio",4.5222917,-75.6478148,30,7,2022,1,,,,,,1,1,,,,,1,AUTOMÓVIL,,1,,
399,,,1,"VIA LA URIBE–CALARCA KM 77+050,Calarcá,Quindio",4.518668,-75.645446,1,8,2022,,1,,,,1,,,1,,1,,,MOTOCICLETA,,1,,
400,,1,,"PUENTE EL DANUBIO VIA LA BELLA-QUEBRADANEGRA,Calarcá,Quindio",4.451051,-75.690078,3,8,2022,1,,1,,,1,,1,,,,,1,CAMPERO,1,,,
401,,1,,"CRA 27 CON CALLE 39 ESQUINA,Calarcá,Quindio",4.5308829,-75.6423,3,8,2022,1,,,,,,1,2,,,1,,1,AUTOMÓVIL-MOTOCICLETA,,2,,
402,,1,,"VIA VIA ARMENIA–IBAGUE KM 1+300,Calarcá,Quindio",4.528772,-75.631856,8,8,2022,,,1,,,1,,1,,,,,1,BICICLETA,,1,,
403,1,,,"VIA LA URIBE–CALARCA KM 77+900,Calarcá,Quindio",4.519037,-75.64456,11,8,2022,1,,,,,1,,1,,,,1,,CAMIONETA,,1,,
404,,1,,"VIA LA URIBE–CALARCA KM 75+900,Calarcá,Quindio",4.51681,-75.651746,14,8,2022,,1,,,,1,,1,,,,1,,PEATÓN ,,,,
405,,1,,"VIA VIA ARMENIA–IBAGUE KM 2+350,Calarcá,Quindio",4.519389,-75.644187,19,8,2022,1,,,,,1,,1,1,,1,1,,MOTOCICLETA-BICICLETA,,2,,
406,,1,,"VIA LA URIBE–CALARCA KM 85+700,Calarcá,Quindio",4.524697,-75.637347,20,8,2022,,,1,,,,1,1,,,,1,,MOTOCICLETA,,1,,
407,,1,,"AVENIDA COLON FRENTE AL NO 15+85,Calarcá,Quindio",4.5287985,-75.6362298,21,8,2022,,,,1,,,1,,1,,1,,,MOTOCICLETA,,1,,
408,,1,,"VIA LA URIBE–CALARCA KM 85+250,Calarcá,Quindio",4.523795,-75.638903,21,8,2022,1,,,,,,1,1,1,,1,1,,CAMIONETA ,1,,,
409,,1,,"CRA 12 CALLE 8 BARCELONA,Calarcá,Quindio",4.5298329,-75.6434429,30,8,2022,1,,,,,,1,2,,,,2,,MOTOCICLETA-MOTOCICLETA,,2,,
410,,1,,"VIA LA URIBE–CALARCA KM 80+880,Calarcá,Quindio",4.521391,-75.64367,2,9,2022,1,,,,,1,,2,,,,2,,AUTOMOVIL-VOLQUETA-VOLQUETA,2,1,,
411,,1,,"BARRIO EL CACIQUE NO 20+59,Calarcá,Quindio",4.529752,-75.637665,7,9,2022,1,,,,,,1,2,,,,2,,CAMPERO-BICICLETA,,2,,
412,,1,,"VIA ARMENIA–IBAGUE GLORIETA NORTE,Calarcá,Quindio",4.534514,-75.641104,8,9,2022,1,,,,,,1,1,1,,,2,,AUTOMÓVIL-AUTOMÓVIL,,2,,
413,,1,,"AVENIDA COLON CALLE 13A FRENTE AL NO 11+08,Calarcá,Quindio",4.5222917,-75.6478148,9,9,2022,1,,,,,,1,2,,,,,,MOTOCICLETA-BUS,1,1,,
414,,1,,"CRA 24 CALLE 38 FRENTE AL NO 23+52,Calarcá,Quindio",4.529531,-75.640584,10,9,2022,,1,,,,,1,1,1,,1,1,,MOTOCICLETA,,1,,
415,,1,,"VIA BARCELONA-RIO VERDE,Calarcá,Quindio",4.419648,-75.709098,10,9,2022,1,,,,,1,,2,,,2,,,MOTOCICLETA-MOTOCICLETA,,2,,
416,,1,,"VIA RIO VERDE BARCELONA FRENTE A VILLA LUCIA,Calarcá,Quindio",4.4805728,-75.6440842,10,9,2022,1,,,,,1,,1,1,,,,2,CAMIONETA-MOTOCICLETA,,2,,
417,,1,,"VIA VIA ARMENIA–IBAGUE KM 3+100,Calarcá,Quindio",4.525734,-75.619843,11,9,2022,1,,,,,1,,2,,,1,1,,MOTOCICLETA-AUTOMÓVIL,,1,1,
418,,1,,"CRA 25 CON CALLE 37,Calarcá,Quindio",4.5291285,-75.64147,12,9,2022,,1,,,,,1,2,,,1,,1,MOTOCICLETA,,1,,
419,,1,,"VIA LA URIBE–CALARCA KM 80+500,Calarcá,Quindio",4.521286,-75.643815,13,9,2022,1,,,,,1,,2,,,,1,1,CAMIONETA-TRACTOCAMIÓN,1,1,,
420,,1,,"CRA 26 CON CALLE 45,Calarcá,Quindio",4.519963,-75.644044,14,9,2022,1,,,,,,1,1,1,,,1,1,MOTOCICLETA-AUTOMÓVIL,,2,,
421,,,1,"CALLE 37A # 21+15,Calarcá,Quindio",4.5285719,-75.638997,15,9,2022,1,,,,,,1,1,1,,2,,,MOTOCICLETA,,1,,
422,,1,,"VIA LA URIBE–CALARCA KM 67,Calarcá,Quindio",4.492672,-75.689435,15,9,2022,1,,,,,1,,2,,,1,1,,CAMIÓN-MOTOCICLETA,1,1,,
423,,1,,"VIA VIA ARMENIA–IBAGUE ALTO DEL RIO,Calarcá,Quindio",4.540547,-75.650034,18,9,2022,1,,,,,,1,2,,,,2,,AUTOMÓVIL-MOTOCICLETA,,2,,
424,,1,,"CALLE 40 CRA 39,Calarcá,Quindio",4.5300826,-75.6383027,19,9,2022,1,,,,,,1,2,,,,1,,AUTOMÓVIL-MOTOCICLETA,,2,,
425,,1,,"VIA VIA ARMENIA–IBAGUE KM 1+100,Calarcá,Quindio",4.529645,-75.633093,21,9,2022,1,,,,,1,,1,1,,1,1,,AUTOMÓVIL-MOTOCICLETA,,2,,
426,,1,,"VIA LA URIBE–CALARCA KM 84+798,Calarcá,Quindio",4.523446,-75.640153,21,9,2022,1,,,,,,1,2,,1,,1,,CAMIÓN-MOTOCICLETA,1,1,,
427,,1,,"VIA LA URIBE–CALARCA KM 74+400,Calarcá,Quindio",4.504769,-75.657576,22,9,2022,1,,,,,1,,2,,,1,1,,MICROBUS-MOTOCICLETA,1,1,,
428,,,1,"VIA VIA CALARCA–CIRCASIA KM 0+420,Calarcá,Quindio",4.5276933,-75.632571,22,9,2022,1,,,,,1,,2,,,,1,1,TRACTOCAMIÓN-BICICLETA,1,1,,
429,,1,,"VIA VIA ARMENIA–IBAGUE KM 2+100,Calarcá,Quindio",4.528806,-75.626643,22,9,2022,1,,,,,1,,2,,,,2,,MOTOCICLETA-MOTOCICLETA,,2,,
430,,,1,"VIA VIA CALARCA–CIRCASIA KM 2+380,Calarcá,Quindio",4.5276933,-75.632571,23,9,2022,1,,,,,1,,2,,,,2,,MOTOCICLETA-TRACTOCAMIÓN,1,1,,
431,,1,,"VIA VIA CALARCA–CIRCASIA KM 0+050,Calarcá,Quindio",4.5276933,-75.632571,30,9,2022,1,,,,,,1,2,,,2,,,AUTOMÓVIL-MOTOCICLETA,,2,,
432,,1,,"AVENIDA COLON CALLE 17,Calarcá,Quindio",4.5177686,-75.6534961,1,10,2022,,1,,,,,1,1,1,,1,,1,MOTOCICLETA,,1,,
433,,1,,"CRA 25 ENTRE CALLES 36 Y 37,Calarcá,Quindio",4.4805728,-75.6440842,28,9,2022,1,,,,,1,,2,,,,,,AUTOMÓVIL-MOTOCICLETA,,2,,
434,,1,,"VIA BARCELONA-RIO VERDE FRENTE PARQUE RECREACIONAL,Calarcá,Quindio",4.401596,-75.716252,5,10,2022,1,,,,,1,,2,,,,2,,CAMIONETA-MOTOCICLETA,,2,,
435,,1,,"BARRIO LA HUERTA MZ N N 1,Calarcá,Quindio",4.514383,-75.643946,4,10,2022,1,,,,,,1,1,1,,1,1,,AUTOMÓVIL-MOTOCICLETA,,2,,
436,,1,,"VIA LA URIBE–CALARCA KM 66+500,Calarcá,Quindio",4.490651,-75.692132,6,10,2022,1,,,,,,1,2,,,,1,1,CAMIONETA-MOTOCICLETA,,2,,
437,,1,,"VIA LA URIBE–CALARCA KM 78+250,Calarcá,Quindio",4.519361,-75.644227,8,10,2022,1,,,,,1,,2,,,,2,,MOTOCICLETA,,1,,
438,,1,,"CRA 25 FRENTE AL 35+43,Calarcá,Quindio",4.5288108,-75.6416001,10,10,2022,,,,,,,1,2,,,,2,,AUTOMÓVIL-BICICLETA,,2,,
439,,1,,"CRA 27 CALLE 32,Calarcá,Quindio",4.5313862,-75.6421157,20,10,2022,1,,,,,,1,2,,,1,1,,MOTOCICLETA-CAMIONETA,1,1,,
440,,1,,"VIA LA URIBE–CALARCA KM 81+800,Calarcá,Quindio",4.521543,-75.643404,19,10,2022,1,,,,,1,,1,1,,1,1,,CAMIÓN-MOTOCICLETA ,1,1,,
441,,1,,"CALLE 39 CON CRA 30,Calarcá,Quindio",4.5316086,-75.6442456,22,10,2022,1,,,,,,1,2,,,,2,,AUTOMÓVIL-MOTOCICLETA,1,1,,
442,,1,,"VIA LA URIBE–CALARCA KM 72+900,Calarcá,Quindio",4.503035,-75.661241,24,10,2022,1,,,,,1,,2,,,2,,,MOTOCICLETA-BICICLETA,,2,,
443,1,,,"AVENIDA COLON FRENTE AL NO 26+69,Calarcá,Quindio",4.5222917,-75.6478148,29,10,2022,1,,,,,,1,1,,,,1,,AUTOMÓVIL,,1,,
444,,1,,"CALLE 40 FRENTE AL NO 30+41,Calarcá,Quindio",4.5307824,-75.6401809,31,10,2022,,,1,,,,1,1,,,1,,,MOTOCICLETA ,,1,,
445,,1,,"VIA LA URIBE–CALARCA KM 83+500 CON AVENIDA COLON,Calarcá,Quindio",4.523289,-75.641955,4,11,2022,1,,,,,,1,1,1,,1,,1,CAMIONETA-MOTOCICLETA,,2,,
446,,1,,"VIA LA URIBE–CALARCA KM 80+500,Calarcá,Quindio",4.521286,-75.643815,6,11,2022,1,,,,,,1,2,,,1,1,,AUTOMÓVIL-MOTOCICLETA,,2,,
447,,1,,"VIA VIA ARMENIA–IBAGUE KM 2+250,Calarcá,Quindio",4.526852,-75.626053,6,11,2022,1,,,,,,1,2,,,,2,,AUTOMÓVIL-MOTOCICLETA,,2,,
448,,1,,"VIA LA URIBE–CALARCA KM 80+500,Calarcá,Quindio",4.521286,-75.643815,6,11,2022,,1,,,,,1,2,,,,1,,AUTOMÓVIL,,1,,
449,,1,,"VIA LA URIBE–CALARCA KM 82+900,Calarcá,Quindio",4.522395,-75.642071,7,11,2022,1,,,,,,1,2,,,1,,,AUTOMÓVIL,,1,,
450,,1,,"VIA VIA ARMENIA–IBAGUE KM 0+700,Calarcá,Quindio",4.527642,-75.636307,13,11,2022,,,1,,,1,,2,,,1,1,,MOTOCICLETA-BICICLETA,,2,,
451,,,1,"VIA LA URIBE–CALARCA KM 71+150,Calarcá,Quindio",4.498312,-75.677292,14,11,2022,,1,,,,1,,2,,,,1,1,MOTOCICLETA,,1,,
452,,1,,"VIA ARMENIA-CALARCA KM 1+085,Calarcá,Quindio",4.529645,-75.633093,15,11,2022,1,,,,,,1,2,,,,2,,MOTOCICLETA-MOTOCICLETA,,2,,
453,,1,,"CALLE 45 CON CRA 25 ESQUINA,Calarcá,Quindio",4.534244,-75.6396205,16,11,2022,1,,,,,,1,2,,,1,1,,AUTOMÓVIL-MOTOCICLETA,,2,,
454,1,,,"VIA VIA ARMENIA–IBAGUE KM 4+700,Calarcá,Quindio",4.528237,-75.630553,17,11,2022,1,,,,,,1,2,,,,2,,CAMIONETA-BUS,1,,1,
455,,1,,"CRA 24 CALLE 33,Calarcá,Quindio",4.5251682,-75.6387952,18,11,2022,1,,,,,,1,1,1,,1,1,,BUS-MOTOCICLETA,1,1,,
456,,1,,"CRA 23 CALLE 44,Calarcá,Quindio",4.5321716,-75.63596,19,11,2022,1,,,,,,1,2,,,,2,,CAMIONETA-MOTOCICLETA,,2,,
457,,1,,"CRA 11 FRENTE AL NO 9+02,Calarcá,Quindio",4.4287854,-75.7177903,22,11,2022,,1,,,,,1,2,,,1,,1,MOTOCICLETA,,1,,
458,,1,,"VIA VIA ARMENIA–IBAGUE KM 0+660,Calarcá,Quindio",4.527356,-75.636681,19,11,2022,1,,,,,1,,1,,,,1,,MOTOCICLETA,,1,,
459,,1,,"CRA 27 CON CALLE 38 ESQUINA SECTOR GALERIA,Calarcá,Quindio",4.5266644,-75.6409686,24,11,2022,1,,,,,,1,2,,,,1,1,AUTOMÓVIL-MOTOCICLETA,,2,,
460,,1,,"CALLE 30 CON CRA 25,Calarcá,Quindio",4.524655,-75.6431642,28,11,2022,,1,,,,,1,1,1,,,1,1,MOTOCICLETA,,1,,
461,,1,,"VIA VIA CALARCA–CIRCASIA KM 3+100,Calarcá,Quindio",4.5276933,-75.632571,2,12,2022,1,,,,,1,,,1,,1,,,MOTOCICLETA,,1,,
462,,1,,"VIA LA URIBE–CALARCA KM 74+400,Calarcá,Quindio",4.504769,-75.657576,1,12,2022,1,,,,,1,,2,,,,1,1,MOTOCICLETA-MOTOCICLETA,,2,,
463,,1,,"VIA LA URIBE–CALARCA KM 83+040,Calarcá,Quindio",4.522823,-75.642013,5,12,2022,1,,,,,1,,1,1,,2,,,CAMIONETA-MOTOCICLETA,,2,,
464,,1,,"BARRIO NARANJAL CRA 17 N 35+05,Calarcá,Quindio",4.525949,-75.6366,8,12,2022,1,,,,,,1,2,,,2,,,MOTOCICLETA-MOTOCICLETA,,2,,
465,,1,,"VIA VIA ARMENIA–IBAGUE KM 3+300,Calarcá,Quindio",4.525464,-75.618221,13,12,2022,1,,,,,1,,2,,,1,1,,AUTOMOVIL-MOTOCICLETA,,2,,
466,,1,,"CRA 17 CALLE 37 VARIANTE SUR,Calarcá,Quindio",4.5286724,-75.640226,15,12,2022,,,,1,,,1,,1,,,1,,MOTOCICLETA,,1,,
467,,1,,"CALLE 41 ENTRE CRA 17 Y 18,Calarcá,Quindio",4.4805728,-75.6440842,20,12,2022,,1,,,,,1,2,,,,2,,MOTOCICLETA,,1,,
468,,1,,"FRENTE A PANADERIA VILLA ASTRID,Calarcá,Quindio",4.516042,-75.6445307,20,12,2022,,1,,,,,1,1,1,,,1,1,MOTOCICLETA,,1,,
469,1,,,"CALLE 44 CRA 23,Calarcá,Quindio",4.5321716,-75.63596,23,12,2022,1,,,,,,1,2,,,1,1,,MICROBUS-CAMIONETA,1,,1,
470,,1,,"CALLE 40 CRA 27 FRENTE AL 27+10,Calarcá,Quindio",4.5315246,-75.6420647,30,12,2022,1,,,,,,1,2,,,1,,1,AUTOMOVIL-MOTOCICLETA,,2,,
471,,,1,"VIA LA Y BARCELONA KM 4+100,Calarcá,Quindio",4.4805728,-75.6440842,31,12,2022,,1,,,,1,,1,1,,,2,,MOTOCICLETA,,1,,
472,,1,,"CRA 22 CON CALLE 38,Calarcá,Quindio",4.5290661,-75.639359,02,01,2023,1,,,,,,1,2,,,,2,,AUTOMÓVIL-BUSETA,1,1,,
473,,1,,"CRA 18 ENTRE CALLE 37 Y 38,Calarcá,Quindio",4.4805728,-75.6440842,09,01,2023,,,1,,,,1,,1,,1,,,MOTOCICLETA,,1,,
474,,1,,"VIA LA URIBE–CALARCA KM 86+000,Calarcá,Quindio",4.526654,-75.636862,09,01,2023,1,,,,,,1,1,1,,,2,,CAMIONETA-AUTOMOVIL,,2,,
475,,1,,"CALLE 39 # 28+12,Calarcá,Quindio",4.5287985,-75.6362298,10,01,2023,,1,,,,,1,1,1,,,1,1,CAMIONETA,,1,,
476,,1,,"KM 0+300 CALARCA-CIRCACIA,Calarcá,Quindio",4.539292,-75.642249,13,01,2023,1,,,,,,1,1,1,,1,1,,AUTOMOVIL-MOTOCICLETA,,2,,
477,,1,,"CARRERA 12 CALLE 10 BARCELONA,Calarcá,Quindio",4.4293236,-75.718392,13,01,2023,1,,,,,,1,1,1,,1,1,,MOTOCICLETA-MOTOCICLETA,,2,,
478,,1,,"AVENIDA COLON # 21,375,Calarcá,Quindio",4.5245536,-75.6440593,07,01,2023,1,,,,,,1,1,1,,1,1,,MOTOCICLETA-MOTOCICLETA,,2,,
479,,1,,"VIA VIA ARMENIA–IBAGUE CM 0+39,Calarcá,Quindio",4.52558,-75.637006,19,01,2023,,1,,,,1,,1,1,,,2,,BICICLETA,,1,,
480,1,,,"KM 86 TODO VIA LA URIBE–CALARCA,Calarcá,Quindio",4.526654,-75.636862,22,01,2023,1,,,,,,1,2,,,1,1,,AUTOMOVIL-CAMIONETA,,2,,
481,,1,,"VIA VIA CALARCA–CIRCASIA KM 0+170,Calarcá,Quindio",4.5276933,-75.632571,28,01,2023,1,,,,,,1,1,1,,1,1,,MICROBUS-MOTOCICLETA,1,1,,
482,,1,,"LA FLORESTA BLOQUE E CASA 1,Calarcá,Quindio",4.5266644,-75.6409686,29,01,2023,,1,,,,,1,2,,,,2,,AUTOMOVIL-BICICLETA,,2,,
483,1,,,"VIA VIA ARMENIA–IBAGUE KM 3+900,Calarcá,Quindio",4.526386,-75.625009,30,01,2023,1,,,,,,1,1,,,,1,,CAMPERO,,,,
484,,1,,"VIA LA ESPANOLA BARCELONA FRENTE FINCA SANTA RITA,Calarcá,Quindio",4.479948,-75.698933,31,01,2023,1,,,,,,,2,,,,2,,CAMIONETA-MOTOCICLETA,,2,,
485,,1,,"VIA LA URIBE–CALARCA KM 85+400,Calarcá,Quindio",4.524047,-75.638299,01,02,2023,1,,,,,,1,2,,,1,1,,VOLQUETA-MOTOCICLETA ,,2,,
486,,1,,"K-85+100 CALARCA LA URIBE,Calarcá,Quindio",4.523711,-75.639186,01,02,2023,1,,,,,,1,1,1,,,2,,AUTOMOVIL-MOTOCICLETA,1,1,,
487,,1,,"VIA LA YE-BARCELONA FINCA SANTA RITA,Calarcá,Quindio",4.479673,-75.699107,03,02,2023,1,,,,,1,,2,,,,2,,MOTOCICLETA-BICICLETA,,2,,
488,1,,,"VIA LA URIBE–CALARCA KM 85+100 CALARCA SALIDA BARRIO GUADUALES,Calarcá,Quindio",4.523605,-75.63933,05,02,2023,1,,,,,,1,2,,,,2,,CAMIONETA-AUTOMOVIL,1,1,,
489,,1,,"VIA VIA CALARCA–CIRCASIA,Calarcá,Quindio",4.5276933,-75.632571,08,02,2023,1,,,,,,1,2,,,1,1,,MOTOCICLETA-MOTOCICLETA,,2,,
490,,1,,"KM 1+000 VIA VIA ARMENIA–IBAGUE/CALARCA,Calarcá,Quindio",4.529487,-75.634126,01,02,2023,1,,,,,,1,2,,,2,,,CAMION-MOTOCICLETA,1,1,,
491,,1,,"VIA LA URIBE–CALARCA KM 73+500,Calarcá,Quindio",4.503686,-75.659431,16,02,2023,1,,,,,1,,1,1,,,2,,MOTOCICLETA-BICICLETA,,,,
492,,,1,"KM 77+400 URIBE-CALARCA,Calarcá,Quindio",4.5266936,-75.6409574,20,02,2023,1,,,,,1,,2,,,,1,1,MOTOCICLETA-CAMION,1,,,
493,,1,,"BARRIO LLANITOS GUALARA ENTRADA PRINCIPAL,Calarcá,Quindio",4.5111,-75.645761,19,02,2023,1,,,,,,1,1,1,,1,1,,MOTOCICLETA-MOTOCICLETA,,2,,
494,,1,,"AVENIDA COLON SECTOR BOMBA PALMAS 21+113,Calarcá,Quindio",4.5222917,-75.6478148,19,02,2023,1,,,,,,1,2,,,1,1,,AUTOMOVIL-MOTOCICLETA,,2,,
495,,1,,"AVENIDA COLON FRENTE AL N. 22+308,Calarcá,Quindio",4.5222917,-75.6478148,07,03,2023,,1,,,,,1,1,1,,1,1,,MOTOCICLETA,,1,,
496,,1,,"VIA LA URIBE–CALARCA 84+000,Calarcá,Quindio",4.523657,-75.641491,12,03,2023,1,,,,,1,,2,,,1,1,,MOTOCICLETA-BICICLETA,,2,,
497,,1,,"VIA VIA CALARCA–CIRCASIA KLM 0+50,Calarcá,Quindio",4.5276933,-75.632571,14,03,2023,,,1,,,,,1,1,,2,,,MOTOCICLETA-AUTOMOVIL,,2,,
498,,1,,"LA YE- BARCELONA VEREDA LA ALBANIA,Calarcá,Quindio",4.479673,-75.699107,19,03,2023,,1,,,,1,,1,1,,1,1,,MOTOCICLETA-,,1,,
499,,1,,"K 0+200 CIRCASIA -CALARCA,Calarcá,Quindio",4.538354,-75.641808,22,03,2023,1,,,,,,1,1,1,,2,,,MOTOCICLETA-MOTOCICLETA,,2,,
500,,1,,"CARRERA 26 CALLE 35,Calarcá,Quindio",4.5233069,-75.6443833,27,03,2023,,1,,,,,1,2,,,,1,1,MOTOCICLETA,,1,,
501,,1,,"VIA LA URIBE–CALARCA KM 73+100,Calarcá,Quindio",4.503256,-75.660698,27,03,2023,1,,,,,1,,2,,,1,1,,VOLQUETA-MOTOCICLETA ,1,1,,
502,,1,,"VDA POTOSI FRENTE FCA GERONIMO,Calarcá,Quindio",4.46991,-75.679178,12,03,2023,,,1,,,1,,1,1,,,1,,AUTOMOVIL,1,,,
503,,1,,"CARRERA 23 CALLE 41 ESQUINA CALARCA,Calarcá,Quindio",4.531434,-75.6399104,28,03,2023,1,,,,,,1,,2,,1,,1,AUTOMOVIL-AUTOMOVIL,,2,,
504,,1,,"VIA LA URIBE–CALARCA KM 79+200,Calarcá,Quindio",4.520261,-75.644057,31,03,2023,1,,,,,1,,2,,,,2,,MICROBUS,1,,,
505,,1,,"VIA LA URIBE–CALARCA KM 82+250,Calarcá,Quindio",4.521804,-75.642655,31,03,2023,1,,,,,1,,,2,,1,1,,AUTOMOVIL-MOTOCICLETA,,2,,
506,1,,,"VIA VIA ARMENIA–IBAGUE KM 4+500,Calarcá,Quindio",4.529455,-75.62899,01,04,2023,1,,,,,1,,2,,,1,1,,CAMIONETA-CAMIONETA,,2,,
507,,1,,"CARRERA 27 ENTRE CALLES 40 A 30,Calarcá,Quindio",4.4805728,-75.6440842,06,04,2023,1,,,,,,1,2,,,,2,,MOTOCICLETA-AUTOMOVIL,,2,,
508,,1,,"VIA VIA ARMENIA–IBAGUE KM 3+070,Calarcá,Quindio",4.525734,-75.619843,05,04,2023,1,,,,,1,,2,,,2,,,MOTOCICLETA-MOTOCICLETA,,2,,
509,,1,,"BARRIO VERACRUZ FRENTE A LA MZ A # 13,Calarcá,Quindio",4.5198225,-75.6529549,09,04,2023,1,,,,,,1,2,,,2,,,MOTOCICLETA-AUTOMOVIL,,2,,
510,,1,,"BARRIO LA HUERTA MZ J # 8,Calarcá,Quindio",4.515158,-75.643596,16,04,2023,,,1,,,,1,1,,,,1,,MOTOCICLETA,,1,,
511,,1,,"VIA ARMENIA–IBAGUE KM 5+500,Calarcá,Quindio",4.525671,-75.635741,22,04,2023,,,1,,,1,,2,,,,2,,CAMION,1,,,
512,,1,,"CALLE 39 CRA 29 ESQUINA,Calarcá,Quindio",4.5313416,-75.643575,17,04,2023,1,,,,,,,2,,,1,,1,MOTOCICLETA-MICROBUS,,,,
513,,1,,"KM 82+500 VIA LA URIBE–CALARCA,Calarcá,Quindio",4.522025,-75.642255,26,04,2023,,1,,,,,1,1,1,,1,1,,AUTOMOVIL,,1,,
514,,1,,"KM 71+100 VIA LA URIBE–CALARCA,Calarcá,Quindio",4.498211,-75.677411,30,04,2023,,,1,,,1,,1,,,,1,,MOTOCICLETA,,1,,
515,,1,,"KIL 81+400 VIA LA URIBE–CALARCA,Calarcá,Quindio",4.521473,-75.643576,03,05,2023,,1,,,,1,,2,,,1,1,,MOTOCICLETA- AUTOMOVIL,,2,,
516,,1,,"CARRERA 12 CALLE 8 BARCELONA,Calarcá,Quindio",4.4293236,-75.718392,04,05,2023,1,,,,,,1,2,,,,1,1,MOTOCICLETA-MICROBUS,1,1,,
517,,1,,"VIA VIA ARMENIA–IBAGUE KM 1+700,Calarcá,Quindio",4.52802,-75.630354,05,05,2023,1,,,,,1,,2,,,,1,1,AUTOMOVIL-MOTOCICLETA,,1,,
518,,1,,"VIA LA ESPANOLA CALARCA KM 77+800,Calarcá,Quindio",4.5178995,-75.6514265,10,05,2023,,,,,,,,2,,,2,,,AUTOMOVIL-MOTOCICLETA,,2,,
519,,1,,"VIA CALARCA LA VIRGINIA EN EL PUENTE,Calarcá,Quindio",4.5006909,-75.6463363,07,05,2023,1,,,,,1,,2,,,,2,,MOTOCICLETA-BICICLETA,,2,,
520,,1,,"CARRERA 24 CALLE 43 EZQUINA CALARCA,Calarcá,Quindio",4.5327397,-75.6394597,11,05,2023,1,,,,,,1,2,,,1,1,,CAMPERO-MOTOCICLETA,1,1,,
521,,1,,"KLM 83+040 LA ESPANOLA CALARCA,Calarcá,Quindio",4.466267,-75.705741,16,05,2023,1,,,,,,1,1,1,,1,1,,AUTOMOVIL-MOTOCICLETA,,2,,
522,,1,,"VIA BARCELONA LA YE FRENTE AL IMPERIO LLANERO,Calarcá,Quindio",4.4805728,-75.6440842,23,05,2023,1,,,,,1,,2,,,1,1,,MOTOCARRO-MOTOCICLETA,,1,,
523,,1,,"AVENIDA COLON ENTRE CALLES 18 Y 7,Calarcá,Quindio",4.4805728,-75.6440842,25,05,2023,,1,,,,,,2,,,,,2,MOTOCICLETA,,1,,
524,,1,,"CRA 27 CON CALLE 35 CALARCA Q,Calarcá,Quindio",4.5282965,-75.6431875,19,05,2023,1,,,,,,1,2,,,1,1,,MOTOCICLETA-MICROBUS,1,1,,
525,,1,,"KM 67+300 VIA URIBE CALARCA CHALET PILAR,Calarcá,Quindio",4.5266936,-75.6409574,30,05,2023,1,,,,,,1,1,1,,,2,,MOTOCICLETA-CAMIONETA,,2,,
526,,1,,"VIA VIA ARMENIA–IBAGUE KM 0+380,Calarcá,Quindio",4.52528,-75.637255,21,05,2023,1,,,,,1,,2,,,2,,,MOTOCICLETA-MOTOCICLETA,,2,,
527,,1,,"VIA LA URIBE–CALARCA KM 74+490 FRENTE RESTAURANTE NEVAR,Calarcá,Quindio",4.50487,-75.657415,04,06,2023,1,,,,,,,1,1,,1,1,,AUTOMOVIL-MOTOCICLETA,,1,,
528,,1,,"CRA 18 ENTRE CALLE 33 Y 34 CALARCA,Calarcá,Quindio",4.5266936,-75.6409574,03,06,2023,,1,,,,,1,2,,,,2,,MOTOCICLETA-,,,,
529,,1,,"CRA 34A CALLE 16+81 AVENIDA COLON DIAGONAL AL CONJUNTO RESIDENCIAL VENEZIA,Calarcá,Quindio",4.5187256,-75.6525843,03,06,2023,1,,,,,,1,,2,,2,,,MOTOCICLETA-AUTOMOVIL,,2,,
530,,1,,"VIA VIA ARMENIA–IBAGUE KM 0+350,Calarcá,Quindio",4.525513,-75.637822,04,06,2023,1,1,,,,,1,2,,,2,,,CAMION ,1,,,
531,,,1,"K82+500 METROS CALARCA LA URIBE,Calarcá,Quindio",4.521985,-75.642334,06,06,2023,,,1,,,1,,1,1,,,2,,MOTOCICLETA,1,,,
532,,1,,"CARRERA 22 CALLA 39,Calarcá,Quindio",4.52965,-75.63913,09,06,2023,1,,,,,,1,1,1,,,1,1,AUTOMOVIL-BICICLETA,,2,,
533,,1,,"BARRIO BALCONES DE LA VILLA FRENTE MZ 6 N. 1,Calarcá,Quindio",4.508987,-75.655597,12,06,2023,1,,,,,,1,2,,,1,1,,MOTOCICLETA-AUTOMOVIL,,2,,
534,,1,,"KM 82+905 VIA LA URIBE–CALARCA C/CA,Calarcá,Quindio",4.522395,-75.642071,15,06,2023,1,,,,,,1,2,,,,2,,MOTOCICLETA-AUTOMOVIL,,2,,
535,,1,,"BARRIO LAURELES FRENTE PORTAL LAURELES,Calarcá,Quindio",4.522599,-75.649685,19,06,2023,1,,,,,,1,2,,,2,,,MOTOCICLETA,,1,,
536,,1,,"VIA LA URIBE–CALARCA KM 85+600,Calarcá,Quindio",4.524359,-75.637763,19,06,2023,1,,,,,,1,2,,,1,1,,CAMIONETA-MOTOCICLETA,,2,,
537,,1,,"LLANITOS PILOTO MZ 16-B,Calarcá,Quindio",4.5128784,-75.6461274,21,06,2023,1,,,,,1,,2,,,2,,,MOTOCICLETA-BICICLETA,,2,,
538,,1,,"VVIA LA URIBE–CALARCA KM 82+350,Calarcá,Quindio",4.521844,-75.642577,24,06,2023,1,,,,,1,,,,,1,1,,AUTOMOVIL-MOTOCICLETA,,2,,
539,,1,,"VIA VIA CALARCA–CIRCASIA KM 0+100,Calarcá,Quindio",4.5276933,-75.632571,28,06,2023,1,,,,,,,1,1,,,2,,AUTOMOVIL-MOTOCICLETA,,2,,
540,,1,,"CRA 25 CALLE 39 Y 38 CALARCA,Calarcá,Quindio",4.5288108,-75.6416001,27,06,2023,,1,,,,,,1,1,,1,,,MOTOCICLETA,,1,,
541,,1,,"AVENIDA COLON FRENTE 22+258,Calarcá,Quindio",4.5222917,-75.6478148,29,06,2023,,1,,,,,1,2,,,1,1,,MOTOCICLETA,,1,,
542,,1,,"VIA VIA ARMENIA–IBAGUE KM 3+100,Calarcá,Quindio",4.525734,-75.619843,20,06,2023,1,,,,,,1,2,,,,1,1,AUTOMOVIL-MOTOCICLETA,,2,,
543,,,1,"VIA LA URIBE–CALARCA KM 78+400,Calarcá,Quindio",4.519502,-75.644142,01,07,2023,1,,,,,1,,1,,,1,,,MOTOCICLETA,,1,,
544,,1,,"CARRERA 22 CALLE 34 SIMON BOLIVAR,Calarcá,Quindio",4.5305949,-75.6388083,05,07,2023,1,,,,,,1,,,,1,1,,AUTOMOVIL-MOTOCICLETA,,2,,
545,,1,,"VIA LA ESPANOLA CALARCA KLM85+720,Calarcá,Quindio",4.4805728,-75.6440842,06,07,2023,1,,,,,,1,,,,,2,,MOTOCICLETA-MOTOCICLETA,,2,,
546,,1,,"VIA LA YE BARCELONA SOL Y LUNA,Calarcá,Quindio",4.483312,-75.699967,17,07,2023,,1,,,,1,,,,,1,1,,MOTOCICLETA,,1,,
547,,1,,"CRA 18 CON CALLE 34 CALARCA,Calarcá,Quindio",4.52571,-75.638345,17,07,2023,1,,,,,,1,,,,1,1,,CAMIONETA-MOTOCICLETA,,2,,
548,,1,,"KM 83+300 URIBE- CALARCA,Calarcá,Quindio",4.5266936,-75.6409574,27,07,2023,1,,,,,,1,2,,,1,,1,CAMION- MOTOCICLETA ,,1,1,
549,,1,,"VIA CAR.QUEBRADANEGRA LA BELLA FINCA BOLIVIA C/CA,Calarcá,Quindio",4.500171,-75.672374,25,07,2023,1,,,,,1,,1,1,,1,1,,CAMION-MOTOCICLETA,1,1,,
550,,1,,"VIA LA URIBE–CALARCA KM 79+060 FINCA GUADUALES DE CAMBIA,Calarcá,Quindio",4.520128,-75.644056,19,07,2023,1,,1,,,,,1,,,,1,,MOTOCICLETA,,1,,
551,,1,,"VIA VIA ARMENIA–IBAGUE KM 4+900,Calarcá,Quindio",4.527434,-75.632194,27,07,2023,1,,,,,,1,1,1,,,2,,TRACTOCAMION-MOTOCICLETA,1,1,,
552,,1,,"VIA BARCELONA LA Y KM 72+500,Calarcá,Quindio",4.4273861,-75.7181014,01,08,2023,,1,,,,,,2,,,,1,1,AUTOMOVIL,,,,
553,,1,,"VIA LA URIBE–CALARCA KM 78+150,Calarcá,Quindio",4.519242,-75.644291,08,08,2023,1,,,,,1,,2,,,1,1,,MOTOCICLETA-MOTOCICLETA,,1,,
554,,1,,"KILOMETRO 81+800 VIA LA URIBE–CALARCA,Calarcá,Quindio",4.521543,-75.643404,08,08,2023,,1,,,,,1,2,,,1,,1,MOTOCICLETA,,1,,
555,,1,,"VIA VIA ARMENIA–IBAGUE KM 2+800,Calarcá,Quindio",4.525415,-75.622642,07,08,2023,1,,,,,,,2,,,,2,,CAMIONETA-MOTOCICLETA,,2,,
556,,1,,"VIA LA URIBE–CALARCA KM 84+500,Calarcá,Quindio",4.523604,-75.640973,09,08,2023,1,,,,,,1,2,,,1,1,,MOTOCICLETA,,1,,
557,,1,,"VIA ARMENIA–IBAGUE KM 3+200,Calarcá,Quindio",4.525478,-75.619189,15,08,2023,1,,,,,,1,2,,,1,1,,MOTOCICLETA-MOTOCICLETA,,2,,
558,,1,,"KM 1+650 VIA VIA CALARCA–CIRCASIA,Calarcá,Quindio",4.528772,-75.631856,16,08,2023,1,,,,,,1,2,,,,1,1,CAMPERO-MOTOCICLETA,,2,,
559,,1,,"VIA VIA ARMENIA–IBAGUE KM 3+100,Calarcá,Quindio",4.525734,-75.619843,16,08,2023,1,,,,,,,1,1,,1,1,,MICROBUS,1,,,
560,,1,,"CALLE 44 FRENTE 20+11,Calarcá,Quindio",4.5324702,-75.636805,18,08,2023,1,,,,,,1,2,,,1,1,,AUTOMOVIL-MOTOCICLETA,,2,,
561,,1,,"AVENIDA COLON,Calarcá,Quindio",4.5177686,-75.6534961,23,08,2023,,1,,,,,,1,,,1,,,MOTOCICLTA,,1,,
562,,1,,"VIA LA URIBE–CALARCA KM 76+860,Calarcá,Quindio",4.518844,-75.646546,18,08,2023,1,,,,,,1,2,,,1,1,,MOTOCICLTA-MOTOCICLETA,,1,,
563,,1,,"CRA 26 CON CALLE 40 CALARCA,Calarcá,Quindio",4.531259,-75.641432,21,08,2023,1,,,,,,1,1,1,,1,,1,MOTOCICLETA- MOTOCICLETA,,1,,
564,,1,,"CARRERA 34A N. 13A-199,Calarcá,Quindio",4.5175888,-75.6540729,23,08,2023,,1,,,,,1,2,,1,1,,,MOTOCICLETA,,1,,
565,,1,,"VIA LA URIBE–CALARCA KM 84+500,Calarcá,Quindio",4.523604,-75.640973,27,08,2023,1,,,,,,1,1,1,,1,1,,MOTOCICLETA-MOTOCICLETA,,2,,
566,,1,,"CRA 25 ENTRE CALLE 37 Y 38 C/A,Calarcá,Quindio",4.52922,-75.641454,28,08,2023,,1,,,,,1,1,1,,1,1,,MOTOCICLETA,,1,,
567,,1,,"VIA LA URIBE–CALARCA KM 84+600,Calarcá,Quindio",4.523543,-75.640832,27,08,2023,1,,,,,,1,2,,,1,1,,MOTOCICLETA-MOTOCICLETA,,1,,
568,,1,,"CARRERA 24 CALLE 35,Calarcá,Quindio",4.5282333,-75.641112,28,08,2023,1,,,,,,1,1,,,,,,MOTOCICLETA,,1,,
569,,1,,"KM 82+500 FRENTE BARRIO LUIS CARLOS G,Calarcá,Quindio",4.4805728,-75.6440842,02,09,2023,1,,,,,,1,2,,,,2,,BICICLETA-MOTOCICLETA,,2,,
570,,1,,"CALLE 41 ENTRE CARRERA 24 Y 25,Calarcá,Quindio",4.4805728,-75.6440842,11,09,2023,,1,,,,,1,2,,,,1,,MOTOCICLETA,,1,,
571,,,1,"VIA VIA CALARCA–CIRCASIA KLM 0+270,Calarcá,Quindio",4.5276933,-75.632571,15,09,2023,1,,,,,,1,1,,,,,1,BICICLETA,,1,,
572,,1,,"VIA LA URIBE–CALARCA K 80+490,Calarcá,Quindio",4.521251,-75.643849,16,09,2023,1,,,,,,1,2,,,1,1,,AUTOMOVIL-MOTOCICLETA,,2,,
573,,1,,"VIA LA URIBE–CALARCA K 80+30,Calarcá,Quindio",4.521149,-75.643941,18,09,2023,1,,,,,,,2,,,,,2,AUTOMOVIL-BICICLETA,,2,,
574,,1,,"KM 83+850 VIA LA URIBE–CALARCA,Calarcá,Quindio",4.523575,-75.641709,21,09,2023,,1,,,,,1,1,1,,1,,1,MOTOCICLETA,,1,,
575,,1,,"VIA VIA ARMENIA–IBAGUE KM 0+400,Calarcá,Quindio",4.52558,-75.637006,23,09,2023,,,1,,,,1,,2,,1,,1,BUSETA,1,,,
576,,1,,"BALCONES DE LA VILLA MZ 10 # 13,Calarcá,Quindio",4.5092789,-75.6546637,24,09,2023,1,,,,,,,2,,,1,,1,MOTOCICLETA ,,1,,
577,,1,,"VIA LA URIBE–CALARCA K 167+100,Calarcá,Quindio",4.454337,-75.527604,24,09,2023,1,,,,,,,1,1,,1,1,,AUTOMOVILK-MOTOCICLO,,,,
578,,1,,"KM 74+500 VIA LA URIBE–CALARCA C/CA,Calarcá,Quindio",4.505643,-75.656304,28,09,2023,1,,,,,,,2,,,1,1,,CAMIONETA-MOTOCICLETA ,,2,,
579,,1,,"CARRERA 19 CALLE 39 CALARCA,Calarcá,Quindio",4.5248149,-75.6387086,01,10,2023,1,,,,,,1,1,1,,2,,,MOTOCICLETA-AUTOMOVIL ,,2,,
580,,1,,"CRA 27 CON CALLE 50 CALARCA,Calarcá,Quindio",4.5315246,-75.6420647,30,09,2023,1,,,,,,1,2,,,2,,,MOTOCICLETA-CAMIONETA,1,1,,
581,,1,,"VIA VIA CALARCA–CIRCASIA KM 0+100,Calarcá,Quindio",4.5276933,-75.632571,06,10,2023,1,,,,,,,1,1,,,1,1,CAMIONETA-MOTOCICLETA,,1,,
582,,1,,"VIA VIA ARMENIA–IBAGUE KM 0+600,Calarcá,Quindio",4.527356,-75.636681,08,10,2023,1,,,,,1,,,,,,2,,BUSETA-MOTOCICLETA,1,1,,
583,,1,,"VIA VIA CALARCA–CIRCASIA KLM 0+100,Calarcá,Quindio",4.5276933,-75.632571,09,10,2023,1,,,,,1,,1,1,,2,,,AUTOMOVIL-MOTOCICLETA,,2,,
584,,1,,"CALLE 38 FRENTE 24+07,Calarcá,Quindio",4.529408,-75.6403111,10,10,2023,,1,,,,,1,2,,,,1,1,MOTOCICLETA,,1,,
585,,1,,"KM 0+100 CALARCA-CIRCACIA,Calarcá,Quindio",4.616094,-75.635595,13,10,2023,1,,,,,,,2,,,1,1,,MOTOCICLETA-CAMIONETA,,2,,
586,,1,,"FINCA LA DIVISA VDA RICO,Calarcá,Quindio",4.4805728,-75.6440842,01,10,2023,1,,,,,1,,2,,,1,,1,BUS-MOTOCICLETA,1,1,,
587,,1,,"VIA LA URIBE–CALARCA KM 85+150,Calarcá,Quindio",4.52367,-75.639225,14,10,2023,1,,,,,1,,2,,,,2,,AUTOMOVIL-MOTOCICLETA,,2,,
588,,1,,"CRA 24 CON CALLE 41 CALARCA,Calarcá,Quindio",4.531434,-75.6399104,23,10,2023,1,,,,,,1,1,1,,1,1,,CAMIONETA-MOTOCICLETA,,1,1,
589,,1,,"CARRERA 25 CON CALLE 39 Y 38,Calarcá,Quindio",4.5288108,-75.6416001,17,10,2023,,1,,,,,,1,,,1,,,,,,,
590,1,,,"VIA LA URIBE–CALARCA KM 80+100,Calarcá,Quindio",4.521038,-75.644004,16,10,2023,1,,,,,,,1,,,,1,,CAMIONETA,,1,,
591,,1,,"KM 83+050 VIA LA URIBE–CALARCA,Calarcá,Quindio",4.52285,-75.642011,31,10,2023,1,,,,,,,2,,,,1,1,MOTOCICLETA-AUTOMOVIL,,2,,
592,,1,,"VIA VIA ARMENIA–IBAGUE KLM 2+600,Calarcá,Quindio",4.525677,-75.6243,03,11,2023,1,,,,,,1,2,,,1,,,CAMIONETA-AUTOMOVIL,,,,
593,,1,,"VIA BARCELONA RIO VERDE FRENTE DIAGONAL AUTOS LAVADOS,Calarcá,Quindio",4.4270357,-75.7200871,04,11,2023,,1,,,,,,1,1,,2,,,MOTOCICLETA,,1,,
594,,1,,"AVENIDA COLON CARRERA 27,Calarcá,Quindio",4.5250229,-75.6446028,04,11,2023,,1,,,,,1,,2,,1,,1,MOTOCICLETA-,,1,,
595,,1,,"KM 81+300 URIBE-IBAGUE,Calarcá,Quindio",4.52143,-75.64363,05,11,2023,1,,,,,1,,2,,,,1,1,BUS-CAMPERO,1,1,,
596,,1,,"BARRIO LLANITOS GUALARA MZ 1,Calarcá,Quindio",4.510612,-75.646354,06,11,2023,,1,,,,,,2,,1,1,,,AUTOMOVIL,,1,,
597,,1,,"VIA LA URIBE–CALARCA KM 83+070,Calarcá,Quindio",4.52289,-75.642006,09,11,2023,1,,,,,,,2,,,,1,1,AUTOMOVIL-MOTOCICLETA,,2,,
598,,1,,"KM 84+400 URIBE IBAGUE,Calarcá,Quindio",4.52364,-75.641163,11,11,2023,1,,,,,,,2,,,,1,,MOTOCICLETA-CAMIONETA,,2,,
599,,1,,"KM 6+800 VIA ARMENIA–IBAGUE,Calarcá,Quindio",4.530847,-75.633817,11,11,2023,1,,,,,1,,1,1,,,1,1,CAMIONETA - BUS,1,1,,
600,,1,,"VIA VIA ARMENIA–IBAGUE KM 5+400,Calarcá,Quindio",4.526242,-75.636071,14,11,2023,1,,,,,,1,2,,1,,1,,TRACTOCAMION-BICICLETA,1,,,
601,,1,,"VIA ARMENIA CALARCA IBAGUE KM 1+600,Calarcá,Quindio",4.527427,-75.631278,17,11,2023,1,,,,,,,2,,,2,,,MOTOCICLETA-BUSETA,1,1,,
602,,1,,"VIA LA URIBE–CALARCA KM 84+900,Calarcá,Quindio",4.523494,-75.639697,20,11,2023,1,,,,,,1,2,,,,2,,MOTOCICLETA-MOTOCICLETA,,2,,
603,,1,,"KM 77+720 VIA LA URIBE–CALARCA,Calarcá,Quindio",4.518985,-75.644694,25,11,2023,,1,,,,,,2,,,2,,,MOTOCICLETA-CAMION,1,1,,
604,,1,,"VIA LA URIBE–CALARCA KM 83+500,Calarcá,Quindio",4.523289,-75.641955,27,11,2023,1,,,,,,,1,1,,,2,,CAMIONETA-AUTOMOVIL,,2,,
605,,1,,"VIA PRINCIPAL INGRESO LA VIRGINIA FRENTE IGLESIA NUESTRA SENORA FATIMA,Calarcá,Quindio",4.490134,-75.6427003,05,12,2023,,,1,,,,1,1,,,1,,,MOTOCILETA ,,,1,
606,,1,,"VIA BARCELONA SECTOR CALLE LARGA,Calarcá,Quindio",4.4273861,-75.7181014,06,12,2023,,1,,,,1,,1,1,,1,1,,MOTOCICLETA ,,1,,
607,,1,,"VIA CALARCA–CIRCASIA KM 0+800,Calarcá,Quindio",4.5076838,-75.5812264,09,12,2023,1,,,,,1,,1,1,,1,,1,MOTOCICLETA-CAMIONETA,,2,,
608,,1,,"KM 72+100 VIA LA URIBE–CALARCA,Calarcá,Quindio",4.501072,-75.669655,17,12,2023,1,,,,,1,,2,,,1,,1,AUTOMOVIL-MOTOCICLETA,,2,,
609,,1,,"VIA LA URIBE–CALARCA KLM 83+120,Calarcá,Quindio",4.522945,-75.641999,24,12,2023,,,1,,,,1,1,1,,2,,,MOTOCICLETA,,1,,
610,,1,,"KM 84+100 URIBE CALARCA,Calarcá,Quindio",4.5266936,-75.6409574,24,12,2023,1,,,,,,,2,,,1,,1,MOTOCICLETA-AUTOMOVIL,,2,,
611,,1,,"CRA 24 CALLE 35+35-43,Calarcá,Quindio",4.5280268,-75.6413212,24,12,2023,,1,,,,,1,,,,,,,MOTOCICLETA,,1,,
612,,1,,"CALLE 39 FRENTE 28+02,Calarcá,Quindio",4.5301984,-75.6403968,24,12,2023,,1,,,,,1,2,,,1,,1,MOTOCICLETA ,,1,,
613,,1,,"KM 83+040 ESPANOLA CALARCA,Calarcá,Quindio",4.5266936,-75.6409574,26,12,2023,,1,,,,,,2,,,1,,1,MOTOCICLETA,,1,,
614,,1,,"CRA 31 N. 40+07 BARRIO PESCADOR,Calarcá,Quindio",4.531479,-75.644546,01,01,2024,,1,,,,1,,2,,,1,,,CAMIONETA,,1,,
615,,,1,"VIA LA URIBE–CALARCA KM 83+040,Calarcá,Quindio",4.522823,-75.642013,07,01,2024,1,,,,,,1,2,,,2,,,MOTOCICLETA,,1,,
616,,1,,"CRA 24 CALLE 38 Y 39 FRENTE 38 N 16,Calarcá,Quindio",4.4805728,-75.6440842,11,01,2024,1,,,,,,1,1,1,,,2,,AUTOMOVIL-CAMIONETA,,2,,
617,,1,,"BARRIO PLAZUELA VILLA FRENTE CASA N 11,Calarcá,Quindio",4.511746,-75.654606,12,01,224,1,,,,,,1,1,1,,,2,,CAMIONETA-MOTOCICLETA,,2,,
618,1,,,"VIA VIA CALARCA–CIRCASIA KM 0,Calarcá,Quindio",4.5276933,-75.632571,13,01,2024,1,,,,,,1,1,1,,,1,1,CAMION-CAMIONETA,1,1,,
619,,1,,"VIA VIA CALARCA–CIRCASIA KM 2+330,Calarcá,Quindio",4.5276933,-75.632571,17,01,2024,1,,,,,1,,1,1,,,2,,AUTOMOVIL-MOTOCICLETA,1,1,,
620,,1,,"CRA 26 N. 27+04,Calarcá,Quindio",4.5242382,-75.6439527,19,01,2024,1,,,,,,1,1,1,,,2,,AUTOMOVIL-MOTOCICLETA,,2,,
621,,1,,"CARRERA 18 CALLE 34,Calarcá,Quindio",4.5252109,-75.6371402,20,01,2024,1,,,,,,1,2,,,,,1,CAMIONETA-MOTOCICLETA,,2,,
622,,1,,"VIA CALARCA–CIRCASIA KM 1,Calarcá,Quindio",4.5076838,-75.5812264,22,01,2024,1,,,,,1,,2,,,1,,1,BICICLETA-MOTOCICLETA,,2,,
623,,1,,"CARRERA 26 CALLE 41,Calarcá,Quindio",4.5233069,-75.6443833,25,01,2024,1,,,,,,1,,2,,2,,,MOTOCICLETA-AUTOMOVIL,,2,,
624,,1,,"AVENIDA EL CACIQUE CON CALLE 41,Calarcá,Quindio",4.5307698,-75.6380923,27,01,2024,1,,,,,,1,2,,,1,,1,AUTOMOVIL-MOTOCICLETA,,2,,
625,1,,,"CALLE 45 CARRERA 25 CALARCA,Calarcá,Quindio",4.5341153,-75.6393064,29,01,2024,1,,,,,,1,1,,,,1,,AUTOMOVIL,,1,,
626,,1,,"CARRERA 25 ENTRE CALLE 37 A 36 FRENTE A CAPRICHOS,Calarcá,Quindio",4.528603,-75.6418191,01,02,2024,1,,,,,,,2,,,1,,1,CAMIONETA-MOTOCICLETA,,2,,
627,,,1,"VIA LA URIBE–CALARCA KM 85+700,Calarcá,Quindio",4.524697,-75.637347,05,02,2024,1,,,,,,1,2,,,1,1,,CAMION-MOTOCICLETA,1,1,,
628,,1,,"CARRERA 12 CALLE 13 BARRIO ZULETA BARCELONA,Calarcá,Quindio",4.4273861,-75.7181014,13,02,2024,1,,,,,,1,2,,,1,1,,VOLQUETA-MOTOCICLETA,1,1,,
629,,1,,"CALLE 41 FRENTE N 32+532,Calarcá,Quindio",4.531434,-75.6399104,13,02,2024,1,,,,,,,2,,,,1,1,MOTOCICLETA-MOTOCICLETA,,2,,
630,,1,,"CARRERA 29 CALLE 39 EZQUINA CALARCA,Calarcá,Quindio",4.5313416,-75.643575,11,02,2024,1,,,,,,1,2,,,,,2,CAMIONETA-MOTOCICLETA,,2,,
631,,1,,"FRENTE A LA CASA 1 MZ B BARRIO PORVENIR CALARCA,Calarcá,Quindio",4.51794,-75.645101,14,02,2024,,1,,,,,1,2,,,,2,,MOTOCICLETA,,1,,
632,,1,,"AVENIDA COLON FRENTE AL N. 21+89,Calarcá,Quindio",4.5222917,-75.6478148,16,02,2024,,1,,,,,1,1,1,,,1,,MOTOCICLETA,,1,,
633,,1,,"VIA LA URIBE–CALARCA KM 84+150 ENTRADA BARRIO LA HUERTA,Calarcá,Quindio",4.523667,-75.641364,19,02,2024,1,,,,,,1,2,,,1,1,,AUTOMOVIL-MOTOCICLETA,,2,,
634,,1,,"CARRERA 29 CALLE 38,Calarcá,Quindio",4.5281946,-75.6367014,22,02,2024,1,,,,,,1,2,,,1,,1,CAMPERO-MOTOCICLETA,,2,,
635,,1,,"VIA LA URIBE–CALARCA KM 85+500,Calarcá,Quindio",4.524157,-75.638028,23,02,2024,1,,,,,1,,1,1,,2,,,MOTOCICLETA-AUTOMOVIL,,2,,
636,,1,,"VIA VIA CALARCA–CIRCASIA KM 0+700,Calarcá,Quindio",4.5276933,-75.632571,28,02,2024,1,,,,,,1,2,,,,1,1,MOTOCICLETA-MOTOCICLETA,,2,,
637,,1,,"KM 85+300 URIBE CALARCA,Calarcá,Quindio",4.5266936,-75.6409574,01,03,2024,1,,,,,1,,,2,,1,,,MOTOCICLETA-MOTOCICLETA,,2,,
638,,1,,"VIA ARMENIA–IBAGUE KM 3+300,Calarcá,Quindio",4.525464,-75.618221,04,03,2024,1,,,,,1,,2,,,1,1,,MOTOCICLETA-MOTOCICLETA,,2,,
639,,1,,"VIA LA URIBE–CALARCA KM 84+970,Calarcá,Quindio",4.523489,-75.639758,06,03,2024,1,,,,,,1,2,,,,2,,BUS-MOTOCICLETA,1,1,,
640,,1,,"CRA 26 CON CALLE 35,Calarcá,Quindio",4.528075,-75.642615,06,03,2024,,1,,,,,1,2,,,,1,1,MOTOCICLETA,,1,,
641,,1,,"KM 3+150 VIA CALARCA–CIRCASIA,Calarcá,Quindio",4.5076838,-75.5812264,09,03,2024,1,,,,,1,,,2,,1,1,,MOTOCICLETA-CAMIONETA,,2,,
642,,1,,"CARRERA 24 FRENTE N. 35+49,Calarcá,Quindio",4.5285541,-75.6409661,09,03,2024,1,,,,,,1,1,1,,1,1,,AUTOMOVIL-MOTOCICLETA,1,1,,
643,,1,,"CARRERA 25 CON CALLE 38,Calarcá,Quindio",4.5297619,-75.6412515,09,03,2024,1,,,,,,1,1,1,,1,,1,AUTOMOVIL-MOTOCICLETA,,2,,
644,,1,,"KM 82+350 VIA LA URIBE–CALARCA,Calarcá,Quindio",4.521842,-75.642526,11,03,2024,1,,,,,,,2,,,1,1,,CAMION-MOTOCICLETA,,,,
645,,1,,"LA HUERTA MZ A # 7,Calarcá,Quindio",4.4805728,-75.6440842,11,03,2024,1,,,,,,1,2,,,,2,,AUTOMOVIL-MOTOCICLETA,,2,,
646,,1,,"CARRERA 26 CALLE 36 Y 35 # 35+01,Calarcá,Quindio",4.4805728,-75.6440842,12,03,2024,,1,,,,,1,1,1,,2,,,MOTOCICLETA,,1,,
647,,1,,"VIA VIA ARMENIA–IBAGUE KM 2+700,Calarcá,Quindio",4.5345071,-75.6411721,12,03,2024,1,,,,,,1,1,1,,,2,,CAMPERO-MOTOCICLETA,,2,,
648,,1,,"VIA LA URIBE–CALARCA KM 83+050,Calarcá,Quindio",4.52285,-75.642011,14,03,2024,1,,,,,1,,1,1,,1,1,,MOTOCICLETA-MOTOCICLETA,,2,,
649,,1,,"VIA LA URIBE–CALARCA KM 85+200,Calarcá,Quindio",4.52374,-75.639057,16,03,2024,,1,,,,,1,2,,1,,1,,MOTOCICLETA,,1,,
650,,1,,"KM 1+800 VIA VIA CALARCA–CIRCASIA,Calarcá,Quindio",4.5276933,-75.632571,19,03,2024,1,,,,,,1,,2,,,2,,AUTOMOVIL-MOTOCICLETA,,2,,
651,,1,,"VIA IBAGUE CIRCASIA ENTRADA BARRIO GAITAN,Calarcá,Quindio",4.5398302,-75.6396191,19,03,2024,1,,,,,,,2,1,,3,,,MOTOCICLETA-MOTOCICLETA,,2,,
652,,1,,"VIA VIA ARMENIA–IBAGUE KM 6+820,Calarcá,Quindio",4.530847,-75.633817,23,03,2024,1,,,,,1,,2,,,,1,1,MOTOCICLETA-CAMPERO,,2,,
653,,1,,"VIA LA URIBE–CALARCA KM 85+400,Calarcá,Quindio",4.524047,-75.638299,24,03,2024,1,,,,,,1,,2,,2,,,MOTOCICLETA,,1,,
654,,1,,"CALLE 45 CON CRA 25 CALARCA,Calarcá,Quindio",4.534244,-75.6396205,26,03,2024,,1,,,,,1,2,,,1,1,,AUTOMOVIL,,1,,
655,,1,,"CALLE 45 FRENTE EL N. 24+79,Calarcá,Quindio",4.534244,-75.6396205,27,03,2024,,1,,,,,1,2,,,,1,,TRACTOCAMION,1,,,
656,,1,,"CRA 29 CON CLLE 37 CALARCA,Calarcá,Quindio",4.5300755,-75.6440755,29,03,2024,1,,,,,,1,1,,,1,,,MOTOCICLETA,,1,,
657,,1,,"MZNA A CASA # 7 VILKLA ASTRID,Calarcá,Quindio",4.516042,-75.6445307,31,03,2024,,,,,,,,2,,,1,,1,MOTOCICLETA-MOTOCICLETA,,1,,
658,,1,,"CARRERA 24 CALLE 40 ESQUINA,Calarcá,Quindio",4.5307824,-75.6401809,05,04,2024,,1,,,,,1,1,1,,1,1,,MOTOCICLETA,,1,,
659,,1,,"VIA LA URIBE–CALARCA KM 78+020,Calarcá,Quindio",4.51917,-75.644346,06,04,2024,,1,,,,1,,1,,,1,,,MOTOCICLETA-BICICLETA,,1,,
660,,1,,"CRA 24 CALLE 30,Calarcá,Quindio",4.5241522,-75.6419001,06,04,2024,1,,,,,,1,1,,,,1,,MOTOCICLETA-CARGA,1,1,,
661,,1,,"VIA VIA ARMENIA–IBAGUE KM 6+900 CALARCA,Calarcá,Quindio",4.53189,-75.635019,11,04,2024,1,,,,,1,,1,,,1,,,CAMION,1,,,
662,,1,,"VIA CALARCA–CIRCASIA 0+200,Calarcá,Quindio",4.5076838,-75.5812264,16,04,2024,1,,,,,1,,2,,,2,,,MOTOCICLETA-CAMIONETA,,1,,
663,,,1,"VIA ARMENIA–IBAGUE KM 3+200,Calarcá,Quindio",4.525478,-75.619189,17,04,2024,,1,,,,1,,1,1,,,1,1,AUTOMOVIL,,1,,
664,,1,,"KM 84+920 VIA LA URIBE–CALARCA,Calarcá,Quindio",4.52344,-75.639848,18,04/,2024,1,,,,,,1,1,1,,,1,1,MOTOCICLETA-AUTOMOVIL,,1,,
665,,1,,"VIA LA MARIA CALARCA ENTRADA Y SALIDA FINCA LOS CHORROS,Calarcá,Quindio",4.525181,-75.633908,20,04,2024,1,,,,,,1,2,,,1,1,,MOTOCICLETA-AUTOMOVIL,,2,,
666,,1,,"VIA CALARACA CIRCASIA KM 1+600,Calarcá,Quindio",4.5076838,-75.5812264,21,04,2024,1,,,,,1,,2,,,,2,,MOTOCICLETA-MOTOCICLETA,,2,,
667,,1,,"CALLE 19 CARRERA 11 BARCELONA,Calarcá,Quindio",4.4285796,-75.7180082,22,04,2024,1,,,,,,1,2,,,2,,,MOTOCICLETA-CAMIONETA,,2,,
668,,1,,"BARRIO VERACRUZ MZ 32 C 17,Calarcá,Quindio",4.5198225,-75.6529549,23,04,2024,,1,,,,,1,,2,,2,,,MOTOCICLETA ,,1,,
669,,1,,"CRA 24 FRENTE 29A 26,Calarcá,Quindio",4.5285541,-75.6409661,26,04,2024,1,,,,,,1,1,,,1,,,MOTOCICLETA ,,1,,
670,,1,,"CARRERA 27 FRENTE 35+12,Calarcá,Quindio",4.5315246,-75.6420647,27,04,2024,,1,,,,,1,2,,,,1,1,MOTOCICLETA,,1,,
671,,1,,"VIA LA URIBE–CALARCA KM 79+450,Calarcá,Quindio",4.520483,-75.644061,28,04,2024,1,,,,,1,,2,,,1,1,,TRACTOCAMION,1,,,
672,,,1,"VIA LA URIBE–CALARCA KM 85+770,Calarcá,Quindio",4.525125,-75.637144,01,06,2024,1,,,,,,1,2,,,1,,,TRACTOCAMION-CAMIONETA,1,1,,
673,,1,,"CALLE 39 FRENTE 19+53 CALARCA QUINDIO,Calarcá,Quindio",4.5301984,-75.6403968,01,06,2024,,1,,,,,1,2,,,,2,,MOTOCICLETA ,,1,,
674,,1,,"CRA 25 FRENTE 36+58,Calarcá,Quindio",4.5288108,-75.6416001,03,06,2024,1,,,,,,1,2,,1,,1,,CAMPERO-PATINETA,,2,,
675,,1,,"AVENIDA COLON CALLE 20 FRENTE 19+67,Calarcá,Quindio",4.5216398,-75.6485144,03,06,2024,1,,,,,,1,2,,,1,,,MOTOCICLETA-MOTOCICLETA,,2,,
676,,1,,"AVENIDA COLON MZ 21+113,Calarcá,Quindio",4.5177686,-75.6534961,05,06,2024,1,,,,,,1,2,,,,2,,MOTOCICLETA-AUTOMOVIL,,2,,
677,,1,,"VIA CALARCA -LA VIRGINIA FRENTE AL LEON DE GREIF,Calarcá,Quindio",4.5006909,-75.6463363,09,06,2024,,1,,,,,1,1,1,,1,,1,MOTOCICLETA,,1,,
678,,1,,"BARRIO GUADUALES ETP 2 FRENTE A LAS MZ 6 Y F,Calarcá,Quindio",4.518741,-75.641849,10,06,2024,,1,,,,,1,1,1,,,1,1,MOTOCARRO ,,1,,
679,,1,,"CARRERA 12 CALLE 12 BARCELONA,Calarcá,Quindio",4.4293236,-75.718392,14,06,2024,1,,,,,,1,1,1,,1,1,,MOTOCICLETA -AUTOMOVIL,,2,,
680,,1,,"AVENIDA COLON FRENTE # 19+27,Calarcá,Quindio",4.5222917,-75.6478148,15,06,2024,,1,,,,,1,1,1,,1,,1,MOTOCICLETA,,1,,
681,,1,,"ESPANOLA - CALARCA KM 81+400,Calarcá,Quindio",4.521415,-75.643622,22,06,2024,1,,,,,1,,1,,,1,,,MOTOCICLETA ,,1,,
682,,1,,"BARRIO VILLA ASTRID FRENTE A LA MZ A CASA 9,Calarcá,Quindio",4.516042,-75.6445307,24,06,2024,1,,,,,,1,1,,,,,1,,,,,
683,,1,,"VIA LA URIBE–CALARCA KM 83+800,Calarcá,Quindio",4.523485,-75.641811,26,06,2024,1,,,,,1,,2,,1,,1,,MOTOCICLETA-BICICLETA,,2,,
684,,1,,"VIA CALARCA–CIRCASIA KILOMETRO 0+120,Calarcá,Quindio",4.5076838,-75.5812264,30,06,2024,1,,,,,,1,2,,,,1,1,MOTOCICLETA-AUTOMOVIL,,2,,
685,,1,,"CARRERA 27 CALLE 35,Calarcá,Quindio",4.5286804,-75.643631,01,07,2024,1,,,,,,1,2,,1,1,,,MOTOCICLETA-BICICLETA,,2,,1
686,,1,,"KM 6+860 CALARCA-IBAGUE,Calarcá,Quindio",4.5266936,-75.6409574,15,07,2024,,1,,,,1,,2,,,,1,1,MOTOCICLETA,,1,,
687,,1,,"CARRERA 25 CALLE 27 ESQUINA,Calarcá,Quindio",4.5226966,-75.6438881,15,07,2024,1,,,,,,1,2,,,1,1,,MOTOCICLETA-AUTOMOVIL,,2,,
688,,1,,"CALLE 45 GLORIETA DEL ESTADIO,Calarcá,Quindio",4.534244,-75.6396205,15,07,2024,1,,,,,,1,1,2,,2,1,,CAMIONETA-MOTOCICLETA,,2,,
689,,1,,"INTERSECCION CALLE 39 CRA 26 ESQUINA,Calarcá,Quindio",4.5306545,-75.6416746,16,07,2024,1,,,,,,1,2,1,,1,2,,AUTOMOVIL-MOTOCICLETA,,2,,
690,,1,,"VIA LA URIBE–CALARCA KM 83+540,Calarcá,Quindio",4.523339,-75.641921,20,07,2024,1,,,,,,1,2,,,,2,,MOTOCICLETA,,1,,
691,,1,,"LA ESPONOLA CALARCA KILOMETRO 83+41,85,Calarcá,Quindio",4.47897,-75.69908,24,07,2024,1,,,,,,,2,,,1,1,,TRACTO CAMION - MOTOCICLETA,1,1,,
692,,1,,"KM 0+200 VIA VIA CALARCA–CIRCASIA,Calarcá,Quindio",4.528772,-75.631856,24,07,2024,1,,,,,,1,2,,,,2,,MOTOCICLETA-MOTOCICLETA,,2,,
693,,1,,"VIA CALARCA - CAJAMARCA KM 5+060,Calarcá,Quindio",4.5276933,-75.632571,25,07,2024,,,1,,,,,1,1,,,1,1,AUTOMOVIL,,1,,
694,,1,,"BARCELONA CARRERA 12 CALLE 12,Calarcá,Quindio",41.3873974,2.168568,25,07,2024,1,,,,,,1,2,,,1,1,,MOTOCICLETA-BICICLETA,,2,,
695,,,1,"VIA LA URIBE–CALARCA KM 66+700,Calarcá,Quindio",4.491801,-75.690952,28,07,2024,1,,,,,1,,2,,,1,1,,AUTOMOVIL-MOTOCICLETA,,2,,
696,,1,,"VIA LA URIBE–CALARCA KM 76+200,Calarcá,Quindio",4.518781,-75.649461,30,07,2024,,,1,,,1,,1,,,1,,,,,,,
697,,1,,"VIA ARMENIA -+ IBAGUE KM 1+100 CALARCA,Calarcá,Quindio",4.529645,-75.633093,01,08,2024,1,,,,,1,,1,1,,1,,1,AUTOMOVIL - MOTOCICLETA,,2,,
698,,1,,"QUEBRADANEGRA - RIO DANUBIO,Calarcá,Quindio",4.451051,-75.690078,05,08,2024,1,,,,,1,,2,,,,2,,AUTOMOVIL - BICICLETA,,2,,
699,,1,,"VIA LA URIBE–CALARCA KM 77+350,Calarcá,Quindio",4.518852,-75.644932,10,08,2024,1,,,,,1,,2,,,1,1,,MOTOCICLETA - TRACTOCAMION,,2,,
700,,1,,"VIA ARMENIA - CALARCA KM 3+018 MTS,Calarcá,Quindio",4.525734,-75.619843,15,08,2024,,,,1,,,1,2,,,1,1,,CAMIÓN,1,,,
701,,1,,"CARRERA 26 CALLE 35,Calarcá,Quindio",4.5233069,-75.6443833,17,08,2024,,1,,,,,1,1,1,,1,1,,MOTOCICLETA - PEATON,,1,,
702,,1,,"VIA LA URIBE–CALARCA KM 83+507,Calarcá,Quindio",4.523289,-75.641955,20,08,2024,,1,,,,,1,,2,,1,,1,MOTOCICLETA - PEATON,,,1,
703,,1,,"CARRERA 24 CALLE 30,Calarcá,Quindio",4.5241522,-75.6419001,23,08,2024,1,,,,,,1,1,2,,1,2,,AUTOMOVIL - MOTOCICLETA,,2,,
704,,1,,"LA ESPANOLA - CALARCA KM 84+480 CON CARRERA 24,Calarcá,Quindio",4.5285541,-75.6409661,25,08,2024,1,,,,,,1,2,1,,1,2,,MOTOCICLETA - MOTOCICLETA,,2,,
705,,1,,"VIA VIA ARMENIA–IBAGUE KM 2+900 CALARCA,Calarcá,Quindio",4.525514,-75.621636,26,08,2024,1,,,,,,1,2,,,1,1,,CAMIONETA - AUTOMOVIL,,2,,
706,,1,,"FINCA LA JOYA KM 71+300,Calarcá,Quindio",4.5011377,-75.6659337,27,08,2024,1,,,,,1,,2,1,,1,2,,AUTOMOVIL - MOTOCICLETA,,2,,
707,,1,,"AVENIDA COLON CALLE 30 CRA 26 ESQUINA,Calarcá,Quindio",4.524655,-75.6431642,28,08,2024,1,,,,,,1,1,1,,1,1,,MOTOCICLETA - AUTOMOVIL,,2,,
708,,1,,"VIA CALARCA - CAJAMARCA KM 6+500,Calarcá,Quindio",4.4741455,-75.5484568,28,08,2024,,,1,,,1,,1,1,,,2,,AUTOMOVIL ,,1,,
709,,1,,"CALARCA - BARCELONA ENTRADA FINCA MENEDEZ,Calarcá,Quindio",4.4811343,-75.6982223,31,08,2024,1,,,,,1,,1,2,,1,2,,CAMIONETA - MOTOCICLETA,,2,,
710,,1,,"KM 83+250 URIBE - CALARCA,Calarcá,Quindio",4.5266936,-75.6409574,04,09,2024,1,,,,,1,,2,1,,1,2,,AUTOMOVIL- MOTOCICLETA,,2,,
711,,1,,"VIA LA ESPANOLA BARRAGAN KM 12+004,73 MTS,Calarcá,Quindio",4.47897,-75.69908,05,09,2024,1,,,,,1,,2,,,2,,,MOTOCICLETA ,,2,,
712,,1,,"CALARCA - BARCELONA FRENTE FINCA PRADO,Calarcá,Quindio",4.4811343,-75.6982223,08,09,2024,1,,,,,1,,2,,,2,,,BICICLETA-MOTOCICLETA,,2,,
713,,1,,"AVENIDA COLON ENTRE CLLS 21 Y 22 CALARCA,Calarcá,Quindio",4.5220769,-75.648097,09,09,2024,1,,,,,,1,3,,1,,2,,MOTOCICLETA- MOTOCICLETA,,2,,
714,,1,,"CARRERA 22 CON CALLE 34,Calarcá,Quindio",4.5265022,-75.6402996,09,09,2024,1,,,,,,1,1,1,,1,1,,MOTOCICLETA-MOTOCICLETA,,2,,
715,,1,,"CRA 25 CALLE 31+37,Calarcá,Quindio",4.5256293,-75.6429047,09,09,2024,1,,,,,,1,,1,,1,,,MOTOCICLETA,,1,,
716,,1,,"KM 85+750 VIA LA URIBE–CALARCA,Calarcá,Quindio",4.524984,-75.637193,12,09,2024,1,,,,,,1,2,,,,1,1,CAMION - BICICLETA,1,1,,
717,,1,,"VARIANTE CALE 44 FRENTE 15+51,Calarcá,Quindio",4.4805728,-75.6440842,13,09,2024,1,,,,,1,,2,,,1,1,,CAMPERO-MOTOCICLETA,,2,,
718,,1,,"URIBE-CALARCA KM 84+068,Calarcá,Quindio",4.5095461,-75.6565342,14,09,2024,1,,,,,1,,2,,,,2,,TRACTOCAMIÓN-CAMIONETA,,2,,
719,,1,,"VIA VIA ARMENIA–IBAGUE KM 5+200,Calarcá,Quindio",4.526676,-75.63466,16,09,2024,1,,,,,1,,2,,,,2,,MOTOCICLETA - MOTOCICLETA,,2,,
720,,1,,"VIA LA URIBE–CALARCA KM 77+550,Calarcá,Quindio",4.518925,-75.644783,17,09,2024,1,,,,,,1,1,,,,,,AUTOMOVIL,,1,,
721,,1,,"VIA LA URIBE -* CALARCA 83+050,Calarcá,Quindio",4.522921,-75.641993,17,09,2024,1,,,,,1,,2,2,1,1,2,,MOTOCICLETA - MOTOCICLETA,,2,,
722,,1,,"KM 82+700 VIA LA URIBE–CALARCA,Calarcá,Quindio",4.522223,-75.642125,20,09,2024,,1,,,,,1,1,1,,1,1,,BICICLETA - PEATÓN,,1,,
723,,1,,"VARIENTE SUR KM 84+995 VIA LA URIBE–CALARCA,Calarcá,Quindio",4.523494,-75.639697,21,09,2024,1,,,,,,1,2,,,1,1,,MOTOCICLETA - BUS,1,1,,
724,,1,,"VIA VIA CALARCA–CIRCASIA KM 3+550,Calarcá,Quindio",4.5276933,-75.632571,23,09,2024,1,,,,,,1,1,1,,,2,,AUTOMOVIL - AUTOMOVIL,,2,,
725,,1,,"CRA 12 CALLE 13 BARCELONA FRENTE AL 12+70,Calarcá,Quindio",4.429633,-75.717994,29,09,2024,1,,,,,1,,1,1,,,2,,CAMIONETA - AUTOMOVIL,,2,,
726,,1,,"VIA LA URIBE–CALARCA KM 84+900,Calarcá,Quindio",4.523494,-75.639697,29,09,2024,1,,,,,1,,2,,,1,1,,MOTOCICLETA - MOTOCICLETA,,2,,
727,,1,,"CRA 27 CALLE 36 # 26+49,Calarcá,Quindio",4.528824,-75.642747,02,10,2024,1,,,,,,1,1,1,,,1,1,,,,,
728,,1,,"VIA ARMENIA–IBAGUE KILOMETRO 3+750,Calarcá,Quindio",4.526095,-75.624446,02,10,2024,1,,,,,1,,4,2,,1,5,,BUS -MICROBUS,2,,,
729,,1,,"CRA 26 ENTRE CLLE 31 Y 32 CALARCA,Calarcá,Quindio",4.5266936,-75.6409574,03,10,2024,1,,,,,,1,2,,,,2,,MOTOCICLETA- AUTOMOVIL,,2,,
730,,1,,"VIA VIA ARMENIA–IBAGUE KM 1+600,Calarcá,Quindio",4.527427,-75.631278,04,10,2024,1,,,,,,1,1,1,,,2,,MOTOCICLETA-MOTOCICLETA,,2,,
731,,1,,"VIA ARMENIA–IBAGUE 0+850,Calarcá,Quindio",4.528321,-75.635542,04,10,2024,1,,,,,,1,1,1,,,,2,AUTOMOVIL-AUTOMOVIL,,2,,
732,,1,,"VIA ARMENIA–IBAGUE KM 0+470,Calarcá,Quindio",4.526504,-75.636869,05,10,2024,1,,,,,1,,2,,,,1,1,MOTOCICLETA - MOTOCICLETA,,2,,
733,,1,,"CRA 26 CALLE 34+33-10,Calarcá,Quindio",4.5255756,-75.6382168,06,10,2024,1,,,,,,1,2,,,1,1,,AUTOMOVIL- MOTOCICLETA,,2,,
734,,1,,"CRA 22 CON CALLE 35 CALARCA,Calarcá,Quindio",4.527381,-75.6407071,06,10,2024,1,,,,,,1,2,,,,1,1,MOTOCICLETA - MOTOCICLETA,,2,,
735,,1,,"CARRERA 26 CALLAE 35,Calarcá,Quindio",4.5281327,-75.6427087,07,10,2024,1,,,,,,1,1,1,,1,,1,MOTOCICLETA- CAMPERO,,2,,
736,,1,,"CARRERA 25 FRENTE AL 20+23,Calarcá,Quindio",4.5288108,-75.6416001,12,10,2024,1,,,,,,1,1,1,,1,1,,MOTOCICLETA -AUTOMOVIL,,2,,
737,,1,,"CHAGUALA VIA CIRCASIA - CALARCA KM 0+740,Calarcá,Quindio",4.5008036,-75.6986632,12,10,2024,1,,,,,,1,2,,,2,,,MOTOCICLETA,,1,,
738,,1,,"CRA 25 ENTRE CLLS 40 Y 41 CALARCA,Calarcá,Quindio",4.5266936,-75.6409574,14,10,2024,1,,,,,,1,1,1,,1,1,,AUTOMOVIL - MOTOCICLETA,,1,,
739,,1,,"CRA 26 # 37+56,Calarcá,Quindio",4.5394614,-75.6377305,15,10,2024,1,,,,,,1,1,2,,1,1,1,CAMPERO - MOTOCICLETA,,2,,
740,,1,,"VIA LA URIBE–CALARCA KM 80+600,Calarcá,Quindio",4.521325,-75.643762,16,10,2024,1,,,,,1,,1,1,,1,1,,AUTOMOVIL - MOTOCICLETA,,2,,
741,,1,,"VIA LA URIBE - CALRCA KM 85+400,Calarcá,Quindio",4.524047,-75.638299,16,10,2024,1,,,,,,1,2,1,1,,2,,AUTOMOVIL - CAMION,1,1,,
742,,1,,"KM 70+100 URIBE -CALARCA ENTRADA CALLE LARGA BARCELONA,Calarcá,Quindio",4.4273861,-75.7181014,16,10,2024,1,,,,,1,,2,,,1,1,,BICICLETA - MOTOCICLETA,,2,,
743,,1,,"VIA ARMENIA–IBAGUE KM 0+840,Calarcá,Quindio",4.528321,-75.635542,19,10,2024,1,,,,,1,,1,1,,1,,1,CAMIONETA - AUTOMOVIL,,2,,
744,,1,,"VIA LA URIBE - CALRCA KM 82+050 CALARCA,Calarcá,Quindio",4.521705,-75.642912,19,10,2024,,1,,,,,1,2,,,,1,1,MOTOCICLETA - PEATON,,1,,
745,,1,,"ARMENIA - CALARCA,Calarcá,Quindio",4.5257966,-75.6248044,25,10,2024,,1,,,,,1,2,,,1,,1,MOTOCICLETA - PEATON,,1,,
746,,1,,"AVENIDA COLON FRETE AL N° 19+48,Calarcá,Quindio",4.5222917,-75.6478148,01,11,2024,,1,,,,,1,2,,,1,1,,MOTOCICLETA-PEATON,,1,,
747,,,1,"VARIANTE SUR KM 82+920 VIA LA URIBE–CALARCA,Calarcá,Quindio",4.522545,-75.64204,02,11,2024,1,,,,,,1,4,,,3,1,,AUTOMOVIL-CAMION,1,1,,
748,,1,,"VIA LA URIBE–CALARCA KM 75+750,Calarcá,Quindio",4.515277,-75.65212,02,11,2024,1,,,,,1,,4,,,2,2,,CAMION-MOTOCICLETA-MOTOCICLETA,1,1,,
749,,1,,"KM 78+191 URIBE-CALARCA FRENTE MOTEL EL CASTILLO,Calarcá,Quindio",4.494664,-75.68638,09,11,2024,1,,,,,1,,2,1,1,1,1,,TRACTOCAMION-MOTOCICLETA,1,1,,
750,,1,,"CARRERA 23 CALLE 41,Calarcá,Quindio",4.527994,-75.640474,10,11,2024,1,,,,,,1,2,,,1,1,,CAMIONETA-MOTOCICLETA,,2,,
751,,1,,"VIA LA URIBE–CALARCA KM 81+684,Calarcá,Quindio",4.521469,-75.643521,19,11,2024,1,,,,,1,,3,,1,,2,,CAMPERO-MOTOCICLETA,2,,,
752,,1,,"VIA BARCELONA - RIO VERDE FRENTE A ENTRADAD BARRIO URIBE,Calarcá,Quindio",4.51199,-75.652334,21,11,2024,1,,,,,,1,2,,,,,2,CAMIONETA-MOTOCICLETA,,2,,
753,,1,,"KM 0+900 VIA VIA ARMENIA–IBAGUE,Calarcá,Quindio",4.529008,-75.634824,25,11,2024,1,,,,,1,,1,1,,1,1,,AUTOMOVIL- MOTICICLETA,,2,,
754,,1,,"CRA 25 ENTRE CLLES 40 Y 39 CALARCA,Calarcá,Quindio",4.5266936,-75.6409574,28,11,2024,,1,,,,,1,2,,2,,,,MOTOCICLETA-PEATON,,1,,
755,,,1,"KM 79+520 URIBE-CALARCA,Calarcá,Quindio",4.5095461,-75.6565342,30,11,2024,1,,,,,1,,2,1,,1,2,,TRACTOCAMION-MOTOCICLETA-TRACTOCAMION,1,1,,
756,,1,,"CALLE 37 CON CARRERA 17 CALARCA,Calarcá,Quindio",4.527935,-75.6359021,30,11,2024,1,,,,,,1,2,1,2,1,,,AUTOMOVIL-MOTICICLETA,,2,,
757,,1,,"VIA CALARCA LA URIBE KM 83+004,Calarcá,Quindio",4.522706,-75.642031,04,12,2024,1,,,,,,1,3,1,,2,2,,CAMIONETA-MOTOCICLETA-MOTOCICLETA,,3,,
758,,1,,"VIA CALARCA–CIRCASIA KILOMETRO 2+200,Calarcá,Quindio",4.5276933,-75.632571,09,12,2024,1,,,,,1,,2,,,1,1,,MOTOCICLETA-CAMIONETA,,2,,
759,,1,,"VEREDA POTOSI FRENTE AL CONJUNTO LOS CIPRESES LOTE 1,Calarcá,Quindio",4.485644,-75.672696,13,12,2024,,,1,,,1,,1,1,,2,,,MOTOCICLETA,,1,,
760,,1,,"VIA ARMENIA - CALARCA KM 1+800,Calarcá,Quindio",4.5257966,-75.6248044,14,12,2024,1,,,,,,1,2,1,,,3,,AUTOMOVIL-MOTOCICLETA,,2,,
761,,1,,"KM 82+464 URIBE - CALARCA FRENTE AL MARIPOSARIO,Calarcá,Quindio",4.5152625,-75.6494219,15,12,2024,1,,,,,1,,2,1,,3,,,MOTOCICLETA,,1,,
762,,1,,"CARRERA 18 FRENTE AL 36+56 VARIANTE SUR,Calarcá,Quindio",4.526789,-75.637341,15,12,2024,1,,,,,,1,1,1,,,2,,MOTOCICLETA,,1,,
763,,1,,"URIBE - CALARCA KILOMETRO 83+040,Calarcá,Quindio",4.5266936,-75.6409574,17,12,2024,1,,,,,,1,,1,,1,,,MOTOCICLETA,,1,,
764,,1,,"CARRERA 7 CON CALLE 14 ESQUINA BARCELONA,Calarcá,Quindio",4.427169,-75.714613,17,12,2024,1,,,,,,1,2,,,1,1,,MOTOCILCLETA -AUTOMOVIL,,2,,
765,,,1,"VIA VIA CALARCA–CIRCASIA KM 2+550,Calarcá,Quindio",4.5276933,-75.632571,21,12,2024,1,,,,,1,,2,1,,1,2,,AUTOMOVIL-MOTOCICLETA,,2,,
766,,1,,"KM 83+500 URIBE - CALARCA,Calarcá,Quindio",4.5266936,-75.6409574,23,12,2024,1,,,,,1,,2,,,1,1,,AUTOMOVIL - AUTOMOVIL,,2,,
767,,1,,"CARRERA 18 FRENTE CASA 36+62,Calarcá,Quindio",4.5234114,-75.6418811,25,12,2024,1,,,,,,1,2,1,,2,,1,MOTOCICLETA-MOTOCICLETA,,2,,
768,,,1,"VIA VIA ARMENIA–IBAGUE KM 3+200 CALARCA,Calarcá,Quindio",4.525478,-75.619189,25,12,2024,1,,,,,,1,1,,,,1, ,MOTOCICLETA,,1,,
769,,1,,"CRA 25 ENTRE CLLS 39 Y 38 CALARCA,Calarcá,Quindio",4.5266936,-75.6409574,25,12,2024,1,,,,,,1,2,1,,2,,1,CAMPERO-MOTOCICLETA,,2,,
770,,1,,"KM 3+000 VIA ARMENIA–IBAGUE CALARCA,Calarcá,Quindio",4.525536,-75.620669,27,12,2024,1,,,,,1,,2,1,,1,2,,AUTOMOVIL - MOTOCICLETA,,2,,
771,,1,,"CARRERA 16 FRENTE N° 44+13,Calarcá,Quindio",4.5311442,-75.6330595,27,12,2024,,1,,,,,1,2,,,,,1,AUTOMOVIL - PEATON,,1,,
